,Unnamed: 0,address,checkins,city,country,created,icon,latitude,longitude,pid,title,type,updated
0,0,Мячковский б-р 3а,441,1.0,1,1280741941,https://vk.com/images/places/clubs.png,55.657941,37.751574,1,Baila Baila,Клуб,1507325266.0
1,1,Дачная 2а,16,123.0,1,1280741941,https://vk.com/images/places/clubs.png,53.202017,50.141377,2,Lust,Клуб,1507325319.0
2,2,Лени Голикова 29,7,2.0,1,1280741941,https://vk.com/images/places/clubs.png,59.843376,30.23148,3,Тайфун,Клуб,1486398333.0
3,3,Героев Танкограда 63,8,158.0,1,1280741941,https://vk.com/images/places/clubs.png,55.174954,61.451611,4,Hollywood,Клуб,1470157376.0
4,4,Мусы Джалиля 14К1,40,99.0,1,1280741941,https://vk.com/images/places/clubs.png,54.860834,83.091932,5,Барабас,Клуб,1502604379.0
5,5,Мусы Джалиля 14,6,99.0,1,1280741941,https://vk.com/images/places/clubs.png,54.861114,83.091415,6,Опера,Клуб,1471622459.0
6,6,Труда 153,15,158.0,1,1280741941,https://vk.com/images/places/clubs.png,55.166948,61.395017,7,Малахит,Клуб,1470755251.0
7,7,Сони Кривой 81,3,158.0,1,1280741941,https://vk.com/images/places/clubs.png,55.157006,61.365395,8,Полет,Клуб,1455942973.0
8,8,просп. Ленина 66а,198,158.0,1,1280741941,https://vk.com/images/places/clubs.png,55.160365,61.380302,9,Уральские пельмени,Клуб,1507461219.0
9,9,Гурьянова 31,14,1.0,1,1280741941,https://vk.com/images/places/clubs.png,55.684858,37.7183,10,Salvador Dali,Клуб,1498625432.0
10,10,Энгельса 1К1,1,99.0,1,1280741941,https://vk.com/images/places/clubs.png,54.871906,83.106557,11,Четыре комнаты,Клуб,1485185205.0
11,11,Железноводская 68,3,2.0,1,1280741941,https://vk.com/images/places/clubs.png,59.949213,30.234373,12,Занзибар,Клуб,1497797386.0
12,12,ул.Красная 24,2,2.0,1,1280741941,https://vk.com/images/places/clubs.png,59.960462,30.286592,13,Проект,Клуб,1424342052.0
13,13,Полтавская 7,1,2.0,1,1280741941,https://vk.com/images/places/clubs.png,59.92672,30.368536,14,La,Клуб,1497797405.0
14,14,2-я Брестская 6,5,1.0,1,1280741941,https://vk.com/images/places/clubs.png,55.770968,37.591562,15,Моспроект,Клуб,1444136906.0
15,15,2-ая Боровая 11б,4,10.0,1,1280741941,https://vk.com/images/places/clubs.png,48.721596,44.535346,16,Зажигалка,Клуб,1487744022.0
16,16,Мира 23,2,49.0,1,1280741941,https://vk.com/images/places/clubs.png,56.840941,60.652137,17,Центр мира,Клуб,1491670267.0
17,17,Московский проспект 20,6,99.0,1,1280741941,https://vk.com/images/places/clubs.png,55.029394,82.933293,18,The Past Pavilion,Клуб,1408181395.0
18,18,Ланское ш. 15,19,2.0,1,1280741941,https://vk.com/images/places/clubs.png,59.991147,30.307604,19,Вертеп Карабаса Барабаса,Клуб,1495043270.0
19,19,Лубянский пр. 25К1,0,1.0,1,1280741941,https://vk.com/images/places/clubs.png,55.757116,37.63146,20,Дом Кукера,Клуб,1344699423.0
20,20,Литейный пр. ,8,158.0,1,1280741941,https://vk.com/images/places/clubs.png,55.151862,61.304467,21,Летняя веранда Geometria,Клуб,1400922818.0
21,21,Новослободская 26,2,1.0,1,1280741941,https://vk.com/images/places/clubs.png,55.783104,37.598025,22,Хроника-бар,Клуб,1398172658.0
22,22,Черноморская 37а,0,72.0,1,1280741941,https://vk.com/images/places/clubs.png,45.030744,39.107527,23,Какаду,Клуб,1490787184.0
23,23,ская 208,0,72.0,1,1280741941,https://vk.com/images/places/clubs.png,55.676783,37.762449,24,СУ-27,Клуб,1449301456.0
24,24,Богданова 138,5,72.0,1,1280741941,https://vk.com/images/places/clubs.png,45.020991,39.000241,25,Кокос,Клуб,1450843425.0
25,25,Северная 620,6,72.0,1,1280741941,https://vk.com/images/places/clubs.png,45.039534,38.979894,26,Распутин,Клуб,1347860252.0
26,26,Мира 1б,1,151.0,1,1280741941,https://vk.com/images/places/clubs.png,54.813967,56.059096,27,Goldy,Клуб,1480202182.0
27,27,1-я Останкинская 23,4,1.0,1,1280741941,https://vk.com/images/places/clubs.png,55.82439,37.622387,28,Club 23,Клуб,1506604742.0
28,28,Ленина 119,2,49.0,1,1280741941,https://vk.com/images/places/clubs.png,56.839774,60.615122,29,Камелот,Клуб,1493653304.0
29,29,ул. 8 Марта 13,5,49.0,1,1280741941,https://vk.com/images/places/clubs.png,56.83615,60.600448,30,Down Town,Клуб,1497797598.0
30,30,Кирова 113К2,5,99.0,1,1280741941,https://vk.com/images/places/clubs.png,55.013007,82.954521,31,Небо,Клуб,1485262239.0
31,31,Щелковское ш. 5,3,1.0,1,1280741941,https://vk.com/images/places/clubs.png,55.80402,37.755266,32,Каста,Клуб,1476629730.0
32,32,Зеленодольская 43,9,1.0,1,1280741941,https://vk.com/images/places/clubs.png,55.702617,37.766585,33,Campanello,Клуб,1418312932.0
33,33, 15,17,1.0,1,1280741941,https://vk.com/images/places/clubs.png,55.930433,37.852652,34,Atoll,Клуб,1487145750.0
34,34,Покровка 18К18,49,1.0,1,1280741941,https://vk.com/images/places/clubs.png,55.758808,37.646435,35,Карибы,Клуб,1503338119.0
35,35,наб. Мартынова 94,11,2.0,1,1280741941,https://vk.com/images/places/clubs.png,59.975815,30.245647,36,RT-1,Клуб,1431799139.0
36,36,пр. Большевиков 59б,3,123.0,1,1280741941,https://vk.com/images/places/clubs.png,53.211897,50.209922,37,Золотая чаша,Клуб,1484323377.0
37,37,М. Сухаревская пл. 70а,2,57.0,1,1280741941,https://vk.com/images/places/clubs.png,52.342141,104.213358,38,Barracuda,Клуб,1469999342.0
38,38,Кастанаевская 38,4,1.0,1,1280741941,https://vk.com/images/places/clubs.png,55.73587,37.479627,39,Стрела,Клуб,1503869683.0
39,39,7-й Северный Форт ,0,57.0,1,1280741941,https://vk.com/images/places/clubs.png,52.313021,104.27568,40,Leto Project,Клуб,
40,40,новочеркасский 29К1,179,1.0,1,1280741941,https://vk.com/images/places/clubs.png,55.653665,37.76672,41,Жажда,Клуб,1507411443.0
41,41,Ланское шоссе 48,0,42.0,1,1280741941,https://vk.com/images/places/clubs.png,51.680157,39.175467,42,Tarantul,Клуб,1352796109.0
42,42,Комсомольская 2,12,151.0,1,1280741941,https://vk.com/images/places/clubs.png,54.737465,55.990797,43,Sova,Клуб,1487875573.0
43,43,просп. Мира 119,4,1.0,1,1280741941,https://vk.com/images/places/clubs.png,55.828703,37.633688,44,M-Club,Клуб,1343241861.0
44,44,просп. Мира 150,13,1.0,1,1280741941,https://vk.com/images/places/clubs.png,55.822463,37.646768,45,Happyland,Клуб,1477952343.0
45,45,Маяковского 65К1,64,1.0,1,1280741941,https://vk.com/images/places/clubs.png,55.730466,37.623726,46,FAQ-Caf?,Клуб,1497797772.0
46,46,Волков пер. 13К1,1,1.0,1,1280741941,https://vk.com/images/places/clubs.png,55.76365,37.574013,47,Все свои,Клуб,1398891495.0
47,47,3-я ул. Ямского поля 15,5,1.0,1,1280741941,https://vk.com/images/places/clubs.png,55.782486,37.579381,48,Мажор Холл,Клуб,1481352467.0
48,48,Попова 6,1,49.0,1,1280741941,https://vk.com/images/places/clubs.png,56.83617,60.592444,49,Tele-port,Клуб,1339512172.0
49,49,Дачная 2,15,123.0,1,1280741941,https://vk.com/images/places/clubs.png,53.20206,50.141302,50,Айсберг,Клуб,1505886970.0
50,50,Толмачева 12,3,49.0,1,1280741941,https://vk.com/images/places/clubs.png,56.838258,60.61024,51,Квартира,Клуб,1317407641.0
51,51,Блюхера 58,6,49.0,1,1280741941,https://vk.com/images/places/clubs.png,56.846095,60.632455,52,F1,Клуб,1489065837.0
52,52,Тельмана 46,4,72.0,1,1280741941,https://vk.com/images/places/clubs.png,45.04084,38.987512,53,V-Twin,Клуб,1450563400.0
53,53,Большой просп. П.С. 43,4,2.0,1,1280741941,https://vk.com/images/places/clubs.png,59.960769,30.304882,54,Держись,Клуб,1481833684.0
54,54,просп. Ленина 97,0,87.0,1,1280741941,https://vk.com/images/places/clubs.png,68.975689,33.094932,55,Умка,Клуб,1334576477.0
55,55,Летниковская 6а,2,1.0,1,1280741941,https://vk.com/images/places/clubs.png,55.726056,37.644585,56,Восточный дом,Клуб,1476253334.0
56,56,Холодильный пер. 3,52,1.0,1,1280741941,https://vk.com/images/places/clubs.png,55.708917,37.625451,57,Tuning Hall,Клуб,1478730326.0
57,57,Первомайская ул. 16,0,49.0,1,1280741941,https://vk.com/images/places/clubs.png,56.817774,60.676729,58,PV,Клуб,1337959046.0
58,58,Б.Никитская 19К13,0,1.0,1,1280741941,https://vk.com/images/places/clubs.png,55.756974,37.600963,59,Blues Time,Клуб,
59,59,Паустовского 8К1,9,1.0,1,1280741941,https://vk.com/images/places/clubs.png,55.599072,37.538373,60,Икенга,Клуб,1444593384.0
60,60,Санкт-Петербургскийский 6,0,158.0,1,1280741941,https://vk.com/images/places/clubs.png,55.157428,61.394918,61,Sugar Free,Клуб,1408264235.0
61,61,Московский просп. 97,1,2.0,1,1280741941,https://vk.com/images/places/clubs.png,59.893231,30.317243,62,Моссoncert,Клуб,1464604059.0
62,62,Новопесчаная 12,10,1.0,1,1280741941,https://vk.com/images/places/clubs.png,55.798849,37.513233,63,Питер,Клуб,1503000130.0
63,63,Берсеневская наб. 6К3,14,1.0,1,1280741941,https://vk.com/images/places/clubs.png,55.740603,37.609254,64,Палитра,Клуб,1387435202.0
64,64,Театральный пр. 3К3,80,1.0,1,1280741941,https://vk.com/images/places/clubs.png,55.759993,37.622603,65,Мастерская,Клуб,1474554797.0
65,65,Новослободская 46,2,1.0,1,1280741941,https://vk.com/images/places/clubs.png,55.785792,37.595609,66,Рэй,Клуб,1350145859.0
66,66,Донская 15,4,1.0,1,1280741941,https://vk.com/images/places/clubs.png,55.723693,37.608113,67,Newton Bar,Клуб,1408196873.0
67,67,Вавилова 65,10,1.0,1,1280741941,https://vk.com/images/places/clubs.png,55.684655,37.554394,68,X.O.,Клуб,1505327248.0
68,68,Дзержинского 98а,3,134.0,1,1280741941,https://vk.com/images/places/clubs.png,45.044998,41.978031,69,Live city dance hall,Клуб,1461591668.0
69,69,Ломоносова 72К2,0,72.0,1,1280741941,https://vk.com/images/places/clubs.png,45.022074,38.979418,70,Караганда,Клуб,1347262494.0
70,70,Стартовая 19а,4,483.0,1,1280741941,https://vk.com/images/places/clubs.png,55.837879,37.300431,71,Пятница,Клуб,1465751310.0
71,71,Подзеленье ,83,169.0,1,1280741941,https://vk.com/images/places/clubs.png,57.621166,39.897002,72,Мед,Клуб,1499128457.0
72,72,Дачная 2,33,123.0,1,1280741941,https://vk.com/images/places/clubs.png,53.201974,50.141302,73,Оперетта,Клуб,1496731818.0
73,73,Комендантский 47,21,2.0,1,1280741941,https://vk.com/images/places/clubs.png,59.89973,30.289799,74,Place,Клуб,1487878373.0
74,74,Токарей 24,1,49.0,1,1280741941,https://vk.com/images/places/clubs.png,56.837957,60.561362,75,Mixx,Клуб,1500713892.0
75,75,Профессора Баранова 34,1,61.0,1,1280741941,https://vk.com/images/places/clubs.png,54.721312,20.510802,76,Moon,Клуб,1350827048.0
76,76,Металлистов 10,9,49.0,1,1280741941,https://vk.com/images/places/clubs.png,56.810847,61.331191,77,Riviera,Клуб,1448539284.0
77,77,Большая Монетная 7,6,1.0,1,1280741941,https://vk.com/images/places/clubs.png,55.725706,37.673457,78,Tabula Rasa,Клуб,1440187616.0
78,78,Профсоюзная 27К1,2,1.0,1,1280741941,https://vk.com/images/places/clubs.png,55.673869,37.559505,79,Джазман,Клуб,1469052377.0
79,79,Опалихинская 15,0,49.0,1,1280741941,https://vk.com/images/places/clubs.png,56.848699,60.564452,80,City,Клуб,1422889469.0
80,80,ул. Казанская 7,0,2.0,1,1280741941,https://vk.com/images/places/clubs.png,59.933519,30.323863,81,Kvartal,Клуб,1343684308.0
81,81,Куйбышева 4,0,110.0,1,1280741941,https://vk.com/images/places/clubs.png,58.014536,56.232632,82,Loco,Клуб,
82,82,Гоголя 1,8,112.0,1,1280741941,https://vk.com/images/places/clubs.png,61.783937,34.366201,83,"""Barcelona"" Cafe-Bar-Club",Клуб,1389215639.0
83,83,промзона 1а,1,95.0,1,1280741941,https://vk.com/images/places/clubs.png,56.34282,43.835082,84,Рим,Клуб,1353399862.0
84,84,М.Бронная 10,1,1.0,1,1280741941,https://vk.com/images/places/clubs.png,55.760722,37.596669,85,Rush,Клуб,1391184609.0
85,85,Ниж.Сусальный пер. 5К15а,10,1.0,1,1280741941,https://vk.com/images/places/clubs.png,55.76129,37.663068,86,Воздух,Клуб,1351503991.0
86,86,Таганская 2,2,1.0,1,1280741941,https://vk.com/images/places/clubs.png,55.73549,37.616953,87,Mixtura,Клуб,1354090093.0
87,87,просп. Энгельса 154,0,2.0,1,1280741941,https://vk.com/images/places/clubs.png,60.058668,30.336112,88,Запой,Клуб,
88,88,Крымский вал 3К2,4,1.0,1,1280741941,https://vk.com/images/places/clubs.png,55.72927,37.609124,89,Pridebar,Клуб,1447351752.0
89,89,Б.Златоустинский пер. 7,68,1.0,1,1280741941,https://vk.com/images/places/clubs.png,55.758686,37.632768,90,Bourbon Street,Клуб,1507409987.0
90,90,М.Посадская 19,1,2.0,1,1280741941,https://vk.com/images/places/clubs.png,59.957859,30.330169,91,Антресоль,Клуб,1365719750.0
91,91,1-й Смоленский пер. 3,4,1.0,1,1280741941,https://vk.com/images/places/clubs.png,55.746608,37.57969,92,Mafia,Клуб,1353429568.0
92,92,Новозаводская 27,10,1.0,1,1280741941,https://vk.com/images/places/clubs.png,55.749729,37.498788,93,Главклуб,Клуб,1496731489.0
93,93,Земляной Вал 75,24,1.0,1,1280741941,https://vk.com/images/places/clubs.png,55.745985,37.655975,94,Double Bourbon,Клуб,1495206933.0
94,94,Баррикадная 5,10,859.0,1,1280741941,https://vk.com/images/places/clubs.png,55.910276,37.856758,95,The Best Club,Клуб,1485000981.0
95,95,Таганская пл. 20К13,0,1.0,1,1280741941,https://vk.com/images/places/clubs.png,55.7664,37.667137,96,Studio 54,Клуб,
96,96,пл. Ломоносова 2К4,0,57.0,1,1280741941,https://vk.com/images/places/clubs.png,52.262714,104.241476,97,Полигон,Клуб,1343052876.0
97,97,Паустовского 8К1,8,1.0,1,1280741941,https://vk.com/images/places/clubs.png,55.599072,37.538273,98,Шпилька,Клуб,1423505049.0
98,98,Дубининская 69,2,1.0,1,1280741941,https://vk.com/images/places/clubs.png,55.714921,37.634502,99,Serebro,Клуб,1460235700.0
99,99,просп. Испытателей 26К2,14,2.0,1,1280741941,https://vk.com/images/places/clubs.png,60.005873,30.269416,100,Vinyl Story Club,Клуб,1439145994.0
100,100,Хорошевское ш. 39,10,1.0,1,1280741941,https://vk.com/images/places/clubs.png,55.777282,37.513682,101,Закрома Родины,Клуб,1486991368.0
101,101,Волгоградский пр. 6К1,2,1.0,1,1280741941,https://vk.com/images/places/clubs.png,55.819257,37.564918,102,Shambor,Клуб,1429364458.0
102,102,Красная 174,6,72.0,1,1280741941,https://vk.com/images/places/clubs.png,45.044215,38.978466,103,Infiniti,Клуб,1406984147.0
103,103,Пестеля 7,10,2.0,1,1280741941,https://vk.com/images/places/clubs.png,59.94188,30.341479,104,Китайский летчик Джао Да,Клуб,1352833107.0
104,104,Тимирязевская 11,0,1.0,1,1280741941,https://vk.com/images/places/clubs.png,55.598843,37.516171,105,Dark Woods,Клуб,1280943098.0
105,105,Бутырский Вал 5,17,1.0,1,1280741941,https://vk.com/images/places/clubs.png,55.779474,37.58526,106,Жара,Клуб,1367524324.0
106,106,Декабристов 81,2,60.0,1,1280741941,https://vk.com/images/places/clubs.png,55.818523,49.092239,107,Neo Territory,Клуб,1427264345.0
107,107,Полярные Зори 51К33,0,87.0,1,1280741941,https://vk.com/images/places/clubs.png,67.374576,32.503702,108,Декабрь,Клуб,
108,108,Комсомольская пл. 89,0,123.0,1,1280741941,https://vk.com/images/places/clubs.png,53.215343,50.24581,109,Движение,Клуб,1439476666.0
109,109,просп. Гагарина 29,5,95.0,1,1280741941,https://vk.com/images/places/clubs.png,56.292438,43.979845,110,Затерянный рай,Клуб,1408089250.0
110,110,М.Дмитровка 23К15,0,1.0,1,1280741941,https://vk.com/images/places/clubs.png,55.770578,37.604915,111,Синяя птица,Клуб,1439145999.0
111,111,просп. Ленина 46,0,146.0,1,1280741941,https://vk.com/images/places/clubs.png,54.184551,37.607601,112,Анастасия,Клуб,1484314176.0
112,112,Кадашевская наб. 6К1,28,1.0,1,1280741941,https://vk.com/images/places/clubs.png,55.742833,37.617186,113,Третьяков,Клуб,1399641889.0
113,113,просп. Победы 168,5,158.0,1,1280741941,https://vk.com/images/places/clubs.png,55.184896,61.399338,114,Такси-блюз,Клуб,1420577614.0
114,114,Рабоче-Крестьянская 2К1,4,10.0,1,1280741941,https://vk.com/images/places/clubs.png,48.699629,44.503815,115,Калипсо,Клуб,1476551882.0
115,115,М.Сухаревская пл. К38,5,1.0,1,1280741941,https://vk.com/images/places/clubs.png,55.785017,37.53287,116,Арсенал,Клуб,1431089197.0
116,116,Мясницкая 13,0,1.0,1,1280741941,https://vk.com/images/places/clubs.png,55.762449,37.632395,117,Вос-дух,Клуб,1354178187.0
117,117,Карла Маркса 68,2,42.0,1,1280741941,https://vk.com/images/places/clubs.png,51.663663,39.206297,118,Bit Town,Клуб,1335199529.0
118,118,Красная 139,2,72.0,1,1280741941,https://vk.com/images/places/clubs.png,45.044979,38.977029,119,Барсук,Клуб,1418831110.0
119,119,Энгельса 107,3,158.0,1,1280741941,https://vk.com/images/places/clubs.png,55.148765,61.381075,120,Парк,Клуб,1415599933.0
120,120,Красная 36,9,112.0,1,1280741941,https://vk.com/images/places/clubs.png,61.789079,34.353688,121,Контакт,Клуб,1507333902.0
121,121,Ставропольская 12,36,112.0,1,1280741941,https://vk.com/images/places/clubs.png,61.810098,34.332272,122,Территория,Клуб,1502716517.0
122,122,Новокузнецкая 59а,3,158.0,1,1280741941,https://vk.com/images/places/clubs.png,55.162947,61.389232,123,Монте-Карло,Клуб,1481646028.0
123,123,Свободы 46,13,169.0,1,1280741941,https://vk.com/images/places/clubs.png,57.626034,39.869164,124,Старый город,Клуб,1497192647.0
124,124,Сергея Макеева 9,189,1.0,1,1280741941,https://vk.com/images/places/clubs.png,55.761629,37.550837,125,Milk,Клуб,1506964060.0
125,125,Рогожский Вал 6К2,3,1.0,1,1280741941,https://vk.com/images/places/clubs.png,55.742767,37.674526,126,Platina,Клуб,1369337619.0
126,126,Менделеевская 2,0,146.0,1,1280741941,https://vk.com/images/places/clubs.png,54.191984,37.623555,127,Бригантина,Клуб,1316065486.0
127,127,Ясная 2,1,49.0,1,1280741941,https://vk.com/images/places/clubs.png,56.816336,60.584691,128,Партия,Клуб,1354719461.0
128,128,Волгоградский просп. 3,5,2.0,1,1280741941,https://vk.com/images/places/clubs.png,59.962944,30.412051,129,Free for Fun,Клуб,1421259625.0
129,129,Лубянский пр. 15К2,2,1.0,1,1280741941,https://vk.com/images/places/clubs.png,55.756619,37.632489,130,Ля Мур,Клуб,1485939118.0
130,130,Газеты «Звезда» 38б,4,110.0,1,1280741941,https://vk.com/images/places/clubs.png,58.007494,56.248559,131,New Star,Клуб,1493046611.0
131,131,Беговая ул. 47,5,49.0,1,1280741941,https://vk.com/images/places/clubs.png,56.809497,60.601184,132,Red Cafe,Клуб,1489176765.0
132,132,Маршала Казакова 13,13,2.0,1,1280741941,https://vk.com/images/places/clubs.png,59.860075,30.236709,133,Pickup Night Club,Клуб,1503427124.0
133,133,Страстной б-р 8а,8,1.0,1,1280741941,https://vk.com/images/places/clubs.png,55.766258,37.610867,134,Babуlon Private Club,Клуб,1389480417.0
134,134,Летниковская 11К10,126,1.0,1,1280741941,https://vk.com/images/places/clubs.png,55.724545,37.646372,135,Форум холл,Клуб,1506007070.0
135,135,Малышева 3К2,16,1.0,1,1280741941,https://vk.com/images/places/clubs.png,55.701957,37.742735,136,От заката до рассвета,Клуб,1506195369.0
136,136,Комсомольский просп. 28,1,1.0,1,1280741941,https://vk.com/images/places/clubs.png,55.727019,37.579681,137,Maska,Клуб,1353173698.0
137,137,Газетный пер. 84,2,119.0,1,1280741941,https://vk.com/images/places/clubs.png,47.2272,39.714105,138,Асмолов,Клуб,1415977754.0
138,138,факс)Новопесчаная 233б,4,119.0,1,1280741941,https://vk.com/images/places/clubs.png,47.234941,39.732162,139,Камасутра,Клуб,1494272086.0
139,139,Лиговский просп. 50К13,7,2.0,1,1280741941,https://vk.com/images/places/clubs.png,59.925259,30.358139,140,Jesus,Клуб,1390481354.0
140,140,Бауманская 5,17,625.0,1,1280741941,https://vk.com/images/places/clubs.png,56.344391,37.510628,141,Гелиос,Клуб,1422006152.0
141,141,пл. Киевского Вокзала 2,61,1.0,1,1280741941,https://vk.com/images/places/clubs.png,55.74449,37.566302,142,Face,Клуб,1479829094.0
142,142,Московская 75,72,78.0,1,1280741941,https://vk.com/images/places/clubs.png,52.608197,39.532349,143,Мегаполис,Клуб,1507400323.0
143,143,Кузнецкий мост 3,2,1.0,1,1280741941,https://vk.com/images/places/clubs.png,55.761224,37.616575,144,Shelter,Клуб,1458486877.0
144,144,Школьная 21,4,1.0,1,1280741941,https://vk.com/images/places/clubs.png,55.745808,37.672109,145,Old Street,Клуб,1493467056.0
145,145,Усиевича 12К14,0,1.0,1,1280741941,https://vk.com/images/places/clubs.png,55.806267,37.528285,146,Manhattan,Клуб,1421991528.0
146,146,Братиславская ,16,158.0,1,1280741941,https://vk.com/images/places/clubs.png,55.070035,60.107668,147,Van Gogh,Клуб,1506813691.0
147,147,просп. Испытателей ,1,2.0,1,1280741941,https://vk.com/images/places/clubs.png,60.004586,30.285519,148,Malina,Клуб,1345534546.0
148,148,Невский просп. 32К34,4,2.0,1,1280741941,https://vk.com/images/places/clubs.png,59.935534,30.328561,149,RAFINAD,Клуб,1351964889.0
149,149,Республиканская 3К4,96,169.0,1,1280741941,https://vk.com/images/places/clubs.png,57.640084,39.885908,150,Король Королю,Клуб,1496906182.0
150,150,Гоголя 15,135,99.0,1,1280741941,https://vk.com/images/places/clubs.png,55.043154,82.92405,151,Изюм,Клуб,1507390303.0
151,151,Подольская 21,4,60.0,1,1280741941,https://vk.com/images/places/clubs.png,55.786764,49.122903,152,Тихое место,Клуб,1351930904.0
152,152,Октябрьская 35,35,99.0,1,1280741941,https://vk.com/images/places/clubs.png,55.025003,82.919019,153,Rublev Bar,Клуб,1493398992.0
153,153,добавочный 1а,5,42.0,1,1280741941,https://vk.com/images/places/clubs.png,51.653282,39.174568,154,Black and White,Клуб,1355670999.0
154,154,Декабристов пл. 10,11,1.0,1,1280741941,https://vk.com/images/places/clubs.png,55.764085,37.487335,155,Бульвар,Клуб,1488609928.0
155,155,наб. Большой Невки 10,13,110.0,1,1280741941,https://vk.com/images/places/clubs.png,58.008052,56.183863,156,Студклуб ПГУ,Клуб,1499171606.0
156,156,Жуковского 102,54,99.0,1,1280741941,https://vk.com/images/places/clubs.png,55.0619,82.891297,157,Танцуки,Клуб,1506170249.0
157,157,Верхний ,7,99.0,1,1280741941,https://vk.com/images/places/clubs.png,55.04157,82.934075,158,Красная площадь,Клуб,1490342516.0
158,158,Ленинградский просп. 31,765,1.0,1,1280741941,https://vk.com/images/places/clubs.png,55.785994,37.559056,159,Arena Moscow,Клуб,1506074200.0
159,159,выборгская 14,3,1.0,1,1280741941,https://vk.com/images/places/clubs.png,55.752242,37.633167,160,Лед,Клуб,1354388918.0
160,160,Комендантский просп. 271,10,2.0,1,1280741941,https://vk.com/images/places/clubs.png,60.018425,30.24845,161,Take Five,Клуб,1466759190.0
161,161,Забелина 1,3,1.0,1,1280741941,https://vk.com/images/places/clubs.png,55.754466,37.637367,162,Подвал на Солянке,Клуб,1456810987.0
162,162,Петрозаводская 22,0,1.0,1,1280741941,https://vk.com/images/places/clubs.png,55.77716,37.565003,163,Times,Клуб,1351286838.0
163,163,Липецкая 10,2,133.0,1,1280741941,https://vk.com/images/places/clubs.png,43.605614,39.715731,164,Agava,Клуб,1435967164.0
164,164,Красных Партизан 204,1,72.0,1,1280741941,https://vk.com/images/places/clubs.png,45.049666,38.964848,165,Chicago,Клуб,1415469012.0
165,165,Шпалерная 24,0,2.0,1,1280741941,https://vk.com/images/places/clubs.png,59.94946,30.350902,166,Пегас,Клуб,1342913520.0
166,166,наб. канала Грибоедова 7,3,2.0,1,1280741941,https://vk.com/images/places/clubs.png,59.938982,30.327381,167,Бархат,Клуб,1347703068.0
167,167,Тушинская ,8,146.0,1,1280741941,https://vk.com/images/places/clubs.png,54.190994,37.612757,168,Комплекс «Карамболь»,Клуб,1455323799.0
168,168,Щукинская ,0,146.0,1,1280741941,https://vk.com/images/places/clubs.png,54.18846,37.681146,169,Петушки,Клуб,
169,169,Д Ульянова 23,2,146.0,1,1280741941,https://vk.com/images/places/clubs.png,54.191747,37.584496,170,Бавария,Клуб,1395998806.0
170,170,Ломоносовский пр. 5,6,146.0,1,1280741941,https://vk.com/images/places/clubs.png,54.511823,37.0514,171,Summer Club,Клуб,1470776262.0
171,171,просп. Ленина 82,4,87.0,1,1280741941,https://vk.com/images/places/clubs.png,68.971302,33.077546,172,The Centre,Клуб,1393937860.0
172,172,Ф.Энгельса 66,4,146.0,1,1280741941,https://vk.com/images/places/clubs.png,54.176525,37.594081,173,Чили,Клуб,1391970598.0
173,173,Петроградская наб. ,7,2.0,1,1280741941,https://vk.com/images/places/clubs.png,59.957185,30.335727,174,Забава-бар,Клуб,1506535428.0
174,174,Садовая 11,0,2.0,1,1280741941,https://vk.com/images/places/clubs.png,59.935412,30.334948,175,Seven Rooms,Клуб,1407974721.0
175,175,Комендантский просп. 9К2,1,2.0,1,1280741941,https://vk.com/images/places/clubs.png,60.005459,30.263398,176,Versailles,Клуб,1359788285.0
176,176,Страстной б-р 4К3,1,1.0,1,1280741941,https://vk.com/images/places/clubs.png,55.764987,37.608472,177,Пурга,Клуб,1282085350.0
177,177,Маяковскай 71,4,61.0,1,1280741941,https://vk.com/images/places/clubs.png,54.681373,20.482882,178,Подводная лодка,Клуб,1481460952.0
178,178,Марата 23,0,2.0,1,1280741941,https://vk.com/images/places/clubs.png,59.927874,30.352537,179,Barry White,Клуб,
179,179,Бекетова 73а,4,95.0,1,1280741941,https://vk.com/images/places/clubs.png,56.293857,44.03051,180,Звезда,Клуб,1507469735.0
180,180,Лесная 23,5,123.0,1,1280741941,https://vk.com/images/places/clubs.png,53.213078,50.125984,181,Леди-Рай,Клуб,1445445356.0
181,181,осковский просп 37,4,60.0,1,1280741941,https://vk.com/images/places/clubs.png,55.767438,49.183867,182,Банзай,Клуб,1393077272.0
182,182,Средний просп. В.О. ,0,2.0,1,1280741941,https://vk.com/images/places/clubs.png,59.938725,30.263496,183,Dance jazz-hall,Клуб,1349473207.0
183,183,Болотная наб. 9а,8,1.0,1,1280741941,https://vk.com/images/places/clubs.png,55.740841,37.611212,184,Элизиум,Клуб,1385848680.0
184,184,Ворошиловский просп. 12,1,119.0,1,1280741941,https://vk.com/images/places/clubs.png,47.219936,39.720259,185,Тема,Клуб,1336629565.0
185,185,Невский 2а,20,1463.0,1,1280741941,https://vk.com/images/places/clubs.png,55.996198,37.21696,186,Bell Pub,Клуб,1465678951.0
186,186,Максима Горького 87,2,99.0,1,1280741941,https://vk.com/images/places/clubs.png,55.028068,82.928604,187,Оскар,Клуб,1350639907.0
187,187,3-я Советская 7,1,2.0,1,1280741941,https://vk.com/images/places/clubs.png,59.932117,30.369471,188,Галар «Кампот»,Клуб,1312373961.0
188,188,Невский просп. 7К9,10,2.0,1,1280741941,https://vk.com/images/places/clubs.png,59.936544,30.313829,189,Celebrity,Клуб,1356192071.0
189,189,Енисейская 5К2,4,1.0,1,1280741941,https://vk.com/images/places/clubs.png,55.858902,37.659578,190,Sharhouse,Клуб,1420375617.0
190,190,Мориса Тереза просп ,1,119.0,1,1280741941,https://vk.com/images/places/clubs.png,47.227163,39.744968,191,Stereo Пляж,Клуб,1438717729.0
191,191,Болдина ,6,146.0,1,1280741941,https://vk.com/images/places/clubs.png,54.17847,37.573744,192,Корона,Клуб,1441484463.0
192,192,Шолохова 316,17,119.0,1,1280741941,https://vk.com/images/places/clubs.png,47.269994,39.824239,193,Zoloto,Клуб,1500647061.0
193,193,Моховая 11,171,1.0,1,1280741941,https://vk.com/images/places/clubs.png,55.756184,37.61132,194,Дума,Клуб,1498591636.0
194,194,Садовая 28-30,9,2.0,1,1280741941,https://vk.com/images/places/clubs.png,59.928077,30.327645,195,Черт Побери!,Клуб,1504990310.0
195,195,Сельскохозяйственная 15К3,0,1.0,1,1280741941,https://vk.com/images/places/clubs.png,55.836686,37.638144,196,Сирена,Клуб,1381481809.0
196,196,Лесная 43,8,1.0,1,1280741941,https://vk.com/images/places/clubs.png,55.780709,37.590506,197,Поляна,Клуб,1369935530.0
197,197,Чапаева 5,16,2.0,1,1280741941,https://vk.com/images/places/clubs.png,59.958989,30.332747,198,Baranka,Клуб,1355643966.0
198,198,Новослободская 36К1,13,1.0,1,1280741941,https://vk.com/images/places/clubs.png,55.784703,37.59648,199,New York Bar & Lounge,Клуб,1391200362.0
199,199,Заневский просп. 38,7,2.0,1,1280741941,https://vk.com/images/places/clubs.png,59.933,30.431427,200,Las Vegas,Клуб,1481914239.0
200,200,Покровка 17,223,1.0,1,1280741941,https://vk.com/images/places/clubs.png,55.759653,37.645258,201,Cuba Libre,Клуб,1504726652.0
201,201,Рубинштейна 13,45,2.0,1,1280741941,https://vk.com/images/places/clubs.png,59.929538,30.343509,202,Terminal,Клуб,1427619600.0
202,202,Белинского 9,3,2.0,1,1280741941,https://vk.com/images/places/clubs.png,59.937756,30.346402,203,Et Cetera,Клуб,1344621614.0
203,203,наб. канала Грибоедова 7,156,2.0,1,1280741941,https://vk.com/images/places/clubs.png,59.938982,30.327281,204,Акакао,Клуб,1506366911.0
204,204,Красная 64,169,72.0,1,1280741941,https://vk.com/images/places/clubs.png,45.026616,38.971405,205,Сахар,Клуб,1507370431.0
205,205,В. Красносельская 44а,2,10.0,1,1280741941,https://vk.com/images/places/clubs.png,48.808495,44.767952,206,Sweet Life,Клуб,1423380883.0
206,206,Ниж.Сусальный пер. 5,1,1.0,1,1280741941,https://vk.com/images/places/clubs.png,55.761338,37.663033,207,Aura,Клуб,1395698910.0
207,207,Ленина 8,0,57.0,1,1280741941,https://vk.com/images/places/clubs.png,52.28858,104.278423,208,Амстердам,Клуб,
208,208,Рождественская 20,123,95.0,1,1280741941,https://vk.com/images/places/clubs.png,56.328414,43.990311,209,Shizgara,Клуб,1507328763.0
209,209,Стасова 182,3,72.0,1,1280741941,https://vk.com/images/places/clubs.png,45.02982,39.046181,210,Улетов и Ко,Клуб,1482413284.0
210,210,Коломенская 4,3,2.0,1,1280741941,https://vk.com/images/places/clubs.png,59.925922,30.355592,211,Киса,Клуб,1497864439.0
211,211,Санкт-петербургское ш. 14,0,112.0,1,1280741941,https://vk.com/images/places/clubs.png,61.760043,34.438345,212,Улетай,Клуб,1372967162.0
212,212,В.Первомайская 22К47,18,146.0,1,1280741941,https://vk.com/images/places/clubs.png,54.039296,38.258098,213,Nova,Клуб,1391106292.0
213,213,Беговая ,0,146.0,1,1280741941,https://vk.com/images/places/clubs.png,54.193845,37.619003,214,Плетенка,Клуб,
214,214,Менделеева 160,0,151.0,1,1280741941,https://vk.com/images/places/clubs.png,54.710402,55.966399,215,О2,Клуб,1378032041.0
215,215,Льва Толстого 18б,8,1.0,1,1280741941,https://vk.com/images/places/clubs.png,55.735241,37.585368,216,Vodka Bar,Клуб,1413094972.0
216,216,Лиговский просп. 50,11,2.0,1,1280741941,https://vk.com/images/places/clubs.png,59.925302,30.358064,217,Пьяная груша,Клуб,1501530149.0
217,217,просп. Художников ,8,2.0,1,1280741941,https://vk.com/images/places/clubs.png,60.043296,30.349744,218,Вотель-Шале,Клуб,1354149180.0
218,218,Большевистская 88,17,110.0,1,1280741941,https://vk.com/images/places/clubs.png,58.009773,56.241948,219,Абырвалг,Клуб,1473867540.0
219,219,Грина 11б,7,1.0,1,1280741941,https://vk.com/images/places/clubs.png,55.566909,37.566656,220,Индиго,Клуб,1420140995.0
220,220,Дербеневская 20,21,1.0,1,1280741941,https://vk.com/images/places/clubs.png,55.721594,37.647738,221,One Rock,Клуб,1437300652.0
221,221,Кронштадтский б-р 9К3,7,1.0,1,1280741941,https://vk.com/images/places/clubs.png,55.84262,37.489401,222,Майер,Клуб,1431688834.0
222,222,Садовая 12,3,2.0,1,1280741941,https://vk.com/images/places/clubs.png,59.935015,30.336116,223,BarBar,Клуб,1349535443.0
223,223,Олимпийский просп. 16К1,3,1.0,1,1280741941,https://vk.com/images/places/clubs.png,55.78116,37.626471,224,Удар,Клуб,1370455079.0
224,224,Чистопрудный б-р 25,3,1.0,1,1280741941,https://vk.com/images/places/clubs.png,55.760104,37.646875,225,Рублев,Клуб,1468615210.0
225,225,2-я Фрунзенская ,0,133.0,1,1280741941,https://vk.com/images/places/clubs.png,43.582795,39.722321,226,Плотформа,Клуб,1440867558.0
226,226,Юных Ленинцев 52,7,1.0,1,1280741941,https://vk.com/images/places/clubs.png,55.699786,37.76548,227,Visota,Клуб,1455452772.0
227,227,Верности 9,30,2.0,1,1280741941,https://vk.com/images/places/clubs.png,60.007582,30.398594,228,Моцарт,Клуб,1465074682.0
228,228,Бебеля 17,3,49.0,1,1280741941,https://vk.com/images/places/clubs.png,56.844235,60.561551,229,Нирвана,Клуб,1489480550.0
229,229,Московский просп. 9,5,42.0,1,1280741941,https://vk.com/images/places/clubs.png,51.684999,39.182815,230,Пульс,Клуб,1490787217.0
230,230,пересечение Университетской наб. и 1-й линии В.О. ,12,99.0,1,1280741941,https://vk.com/images/places/clubs.png,54.971636,82.881874,231,Sky City,Клуб,1385817062.0
231,231,Тельмана 19,6,78.0,1,1280741941,https://vk.com/images/places/clubs.png,52.620084,39.592806,232,Солярис,Клуб,1394281516.0
232,232,Смоленский б-р 7К1,1,1.0,1,1280741941,https://vk.com/images/places/clubs.png,55.73999,37.58438,233,JazzLife,Клуб,1346087218.0
233,233,Левобережная 69,4,119.0,1,1280741941,https://vk.com/images/places/clubs.png,47.203917,39.76951,234,Загородный клуб «Калифорния SUN»,Клуб,1438176665.0
234,234,Бакунинская К2,8,1.0,1,1280741941,https://vk.com/images/places/clubs.png,55.773191,37.679394,235,G-Lounge,Клуб,1384041935.0
235,235,Садовая 28К13,3,2.0,1,1280741941,https://vk.com/images/places/clubs.png,59.930146,30.327636,236,City Сlub,Клуб,1384806695.0
236,236,Лиговский просп. 53,102,2.0,1,1280741941,https://vk.com/images/places/clubs.png,59.929136,30.359379,237,Fish Fabrique,Клуб,1506820970.0
237,237,Садовая К13,9,2.0,1,1280741941,https://vk.com/images/places/clubs.png,59.935051,30.335074,238,Money Honey,Клуб,1506929052.0
238,238,Лиговский просп. 174,34,2.0,1,1280741941,https://vk.com/images/places/clubs.png,59.920785,30.355071,239,Метро,Клуб,1505375074.0
239,239,Санкт-Петербургскийский просп. ,15,1463.0,1,1280741941,https://vk.com/images/places/clubs.png,55.984562,37.16015,240,Дебаркадер,Клуб,1389635571.0
240,240,Б.Морская 46,1,2.0,1,1280741941,https://vk.com/images/places/clubs.png,59.93163,30.306418,241,Buddha Bar.spb,Клуб,1442125441.0
241,241,Маяковская 54,0,49.0,1,1280741941,https://vk.com/images/places/clubs.png,56.898082,60.592408,242,Миллениум,Клуб,1352567513.0
242,242,угол Кронверкского просп. и Крестьянского пер. 42,1,49.0,1,1280741941,https://vk.com/images/places/clubs.png,56.778164,60.640495,243,От заката до рассвета,Клуб,1496732306.0
243,243,Толмачева 18,4,49.0,1,1280741941,https://vk.com/images/places/clubs.png,56.839651,60.609616,244,Мастер и Маргарита,Клуб,1400862739.0
244,244,Литейный просп. 33,28,2.0,1,1280741941,https://vk.com/images/places/clubs.png,59.941042,30.347291,245,Jimi Hendrix Blues Club,Клуб,1505242508.0
245,245,Бажова 75а,0,49.0,1,1280741941,https://vk.com/images/places/clubs.png,56.844284,60.626145,246,Золотой скорпион,Клуб,1342158919.0
246,246,Зеленоградская 9,2,49.0,1,1280741941,https://vk.com/images/places/clubs.png,56.848798,60.61223,247,Атмосфера,Клуб,1504407733.0
247,247,Высоцкого 14,10,49.0,1,1280741941,https://vk.com/images/places/clubs.png,56.841374,60.681045,248,Carabas,Клуб,1473522646.0
248,248,Дзержинского ,6,49.0,1,1280741941,https://vk.com/images/places/clubs.png,56.84484,60.605892,249,Эльдорадо,Клуб,1417534589.0
249,249,Вознесенский просп. 46,4,2.0,1,1280741941,https://vk.com/images/places/clubs.png,59.920754,30.308655,250,Луна,Клуб,1352575126.0
250,250,Фурманова 109,0,49.0,1,1280741941,https://vk.com/images/places/clubs.png,56.813242,60.593486,251,Провокация,Клуб,1409049751.0
251,251,Московская 29,1,49.0,1,1280741941,https://vk.com/images/places/clubs.png,56.837391,60.582338,252,Five,Клуб,1344821686.0
252,252,Челюскинцев ,0,49.0,1,1280741941,https://vk.com/images/places/clubs.png,56.849704,60.592165,253,Пятый океан,Клуб,
253,253,ул. 8 Марта 43,0,49.0,1,1280741941,https://vk.com/images/places/clubs.png,56.825936,60.604989,254,Антрэ,Клуб,1323754052.0
254,254,Толмачева 18,0,49.0,1,1280741941,https://vk.com/images/places/clubs.png,56.839651,60.609516,255,Moloko,Клуб,1462569299.0
255,255,Высоцкого 22,2,49.0,1,1280741941,https://vk.com/images/places/clubs.png,56.841443,60.686542,256,Novelty Club,Клуб,1432052939.0
256,256,Пушкина 2,0,49.0,1,1280741941,https://vk.com/images/places/clubs.png,56.835835,60.609826,257,Pushkina2,Клуб,1344636700.0
257,257,ул. 8 Марта 5,63,49.0,1,1280741941,https://vk.com/images/places/clubs.png,56.839577,60.598714,258,Пушкин Bar & Basement,Клуб,1502433799.0
258,258,Вайнера 40,6,49.0,1,1280741941,https://vk.com/images/places/clubs.png,56.831403,60.595588,259,DaBar,Клуб,1389114390.0
259,259,ул. 8 Марта 212,0,49.0,1,1280741941,https://vk.com/images/places/clubs.png,56.78597,60.605295,260,Империя страсти,Клуб,1380360814.0
260,260,Первомайская 74,29,49.0,1,1280741941,https://vk.com/images/places/clubs.png,56.844589,60.63859,261,Метрополия,Клуб,1492272850.0
261,261,д. Жуковка 13а,1,49.0,1,1280741941,https://vk.com/images/places/clubs.png,56.834461,60.676832,262,DJ Pub,Клуб,1419837172.0
262,262,Зеленоградская 9,0,49.0,1,1280741941,https://vk.com/images/places/clubs.png,56.848841,60.612155,263,Сети,Клуб,
263,263,Кантемировская 14К10,1,60.0,1,1280741941,https://vk.com/images/places/clubs.png,55.792969,49.113735,264,El Macho,Клуб,1352289357.0
264,264,Баумана ,0,60.0,1,1280741941,https://vk.com/images/places/clubs.png,55.792893,49.110453,265,Три мушкетера,Клуб,
265,265,Правобулачная 47а,3,60.0,1,1280741941,https://vk.com/images/places/clubs.png,55.786793,49.122893,266,Сахара,Клуб,1414774654.0
266,266,Автозаводская 1,1,60.0,1,1280741941,https://vk.com/images/places/clubs.png,55.825386,49.043792,267,Мурена,Клуб,1412944292.0
267,267,Московская 1а,1,60.0,1,1280741941,https://vk.com/images/places/clubs.png,55.793865,49.103509,268,Le Chat,Клуб,1335295103.0
268,268,Парижской Коммуны 25К39,0,60.0,1,1280741941,https://vk.com/images/places/clubs.png,55.781124,49.112582,269,Red Fox,Клуб,1347121338.0
269,269,Автозаводская 5,11,60.0,1,1280741941,https://vk.com/images/places/clubs.png,55.824111,49.046469,270,Центр клубной жизни,Клуб,1472487835.0
270,270,просп. Ленина ,1,49.0,1,1280741941,https://vk.com/images/places/clubs.png,56.839774,60.615022,271,Желтая подводная лодка,Клуб,1417302625.0
271,271,Тухачевского 13,1,134.0,1,1280741941,https://vk.com/images/places/clubs.png,45.014581,41.917412,272,Нил,Клуб,1352378451.0
272,272,Сибирский тракт 34б,0,49.0,1,1280741941,https://vk.com/images/places/clubs.png,56.818558,60.66651,273,Небо,Клуб,1497343055.0
273,273,Уральская ,0,49.0,1,1280741941,https://vk.com/images/places/clubs.png,56.858179,60.60105,274,Альбион,Клуб,
274,274,Доваторцев 30б,6,134.0,1,1280741941,https://vk.com/images/places/clubs.png,45.026132,41.937023,275,Дорис,Клуб,1502050148.0
275,275,Хрущевский Вал 1,3,60.0,1,1280741941,https://vk.com/images/places/clubs.png,55.786812,49.122868,276,51 Штат,Клуб,1415405824.0
276,276,Ленина 293а,4,134.0,1,1280741941,https://vk.com/images/places/clubs.png,45.038426,41.949985,277,Z-клуб,Клуб,1482749892.0
277,277,Пушкина 29а,3,60.0,1,1280741941,https://vk.com/images/places/clubs.png,55.792281,49.124529,278,Doctor Club,Клуб,1357082029.0
278,278,Пушкина 17,7,60.0,1,1280741941,https://vk.com/images/places/clubs.png,55.788895,49.123392,279,Арена,Клуб,1459817602.0
279,279,просп. Академика Сахарова 14,60,1.0,1,1280741941,https://vk.com/images/places/clubs.png,55.769135,37.643076,280,Каприз,Клуб,1507409747.0
280,280,Буркова 17,0,87.0,1,1280741941,https://vk.com/images/places/clubs.png,68.962382,33.078664,281,Пирамида,Клуб,1324162308.0
281,281,просп. Ленина 82,0,87.0,1,1280741941,https://vk.com/images/places/clubs.png,68.971345,33.077471,282,Планета,Клуб,
282,282,Вавилова 69,7,1.0,1,1280741941,https://vk.com/images/places/clubs.png,55.68296,37.55151,283,Бакара,Клуб,1395902600.0
283,283,Сходненская 2а,2,87.0,1,1280741941,https://vk.com/images/places/clubs.png,68.996249,33.09518,284,Рандеву,Клуб,1414184052.0
284,284,М.Сухаревская 1,0,87.0,1,1280741941,https://vk.com/images/places/clubs.png,68.975005,33.080586,285,Седьмой континент,Клуб,
285,285,Кольский просп. 27,1,87.0,1,1280741941,https://vk.com/images/places/clubs.png,68.944536,33.099226,286,Сфера,Клуб,1415484449.0
286,286,Волгоградскийпросп. 2а,1,87.0,1,1280741941,https://vk.com/images/places/clubs.png,68.935755,33.117785,287,The Club,Клуб,1335758681.0
287,287,Кольский просп. 130,34,87.0,1,1280741941,https://vk.com/images/places/clubs.png,68.921997,33.104203,288,Бриллиантовая рука,Клуб,1507412585.0
288,288,Книповича 17,13,87.0,1,1280741941,https://vk.com/images/places/clubs.png,68.959655,33.077756,289,Ледокол,Клуб,1495628576.0
289,289,Ниж.Первомайская 22,5,87.0,1,1280741941,https://vk.com/images/places/clubs.png,68.911082,33.085455,290,Гольфстрим,Клуб,1488139793.0
290,290,Воровского 5К23,34,87.0,1,1280741941,https://vk.com/images/places/clubs.png,68.969817,33.072465,291,М-клуб,Клуб,1504959559.0
291,291,Локомотивный ,116,2.0,1,1280741941,https://vk.com/images/places/clubs.png,59.981802,30.293347,292,Zimaleto,Клуб,1478990563.0
292,292,Даниловская наб. 201,2,6154.0,1,1280741941,https://vk.com/images/places/clubs.png,53.529701,33.732786,293,Le Bateau Ivre,Клуб,1348835206.0
293,293,Потаповский пер. 5К2,7,1.0,1,1280741941,https://vk.com/images/places/clubs.png,55.761674,37.640632,294,Louvre,Клуб,1399915185.0
294,294,пер. Гривцова 11,10,2.0,1,1280741941,https://vk.com/images/places/clubs.png,59.927513,30.316174,295,Бардак,Клуб,1382348673.0
295,295,Славянская пл. 2К1,16,1.0,1,1280741941,https://vk.com/images/places/clubs.png,55.75357,37.635148,296,"Sorry, Babushka",Клуб,1401891819.0
296,296,корп. 532 7,0,1.0,1,1280741941,https://vk.com/images/places/clubs.png,55.787725,37.616036,297,In Time,Клуб,1353095035.0
297,297,Ярцевская 25а,6,1.0,1,1280741941,https://vk.com/images/places/clubs.png,55.740999,37.415505,298,Юрта,Клуб,1396353977.0
298,298,Казакова 8,6,1.0,1,1280741941,https://vk.com/images/places/clubs.png,55.76247,37.66026,299,Ikra,Клуб,1399717554.0
299,299,М.Кисловский пер. 6,5,1.0,1,1280741941,https://vk.com/images/places/clubs.png,55.754735,37.603478,300,Подмосковье,Клуб,1497200871.0
300,300,Стремянная 16,0,2.0,1,1280741941,https://vk.com/images/places/clubs.png,59.931093,30.352286,301,Жажда,Клуб,1345882473.0
301,301,Б.Лубянка 13К16,4,1.0,1,1280741941,https://vk.com/images/places/clubs.png,55.764111,37.628855,302,Жесть,Клуб,1451484467.0
302,302,Певческий пер. 6,1,1.0,1,1280741941,https://vk.com/images/places/clubs.png,55.751796,37.641719,303,Экспедиция,Клуб,1460323135.0
303,303,дер. Жуковка 8,8,1.0,1,1280741941,https://vk.com/images/places/clubs.png,55.735925,37.455516,304,Алтайна,Клуб,1352914797.0
304,304,Покровка 16К1,111,1.0,1,1280741941,https://vk.com/images/places/clubs.png,55.758651,37.64604,305,"Кафе, прежде известное как «Кризис жанра»",Клуб,1506112380.0
305,305,Сергея Макеева 9К1,2,1.0,1,1280741941,https://vk.com/images/places/clubs.png,55.757182,37.550378,306,О2ТВ,Клуб,1385043476.0
306,306,Минская 2г,37,1.0,1,1280741941,https://vk.com/images/places/clubs.png,55.734004,37.489904,307,Кутузов-холл,Клуб,1507097336.0
307,307,Семеновская пл. ,7,1.0,1,1280741941,https://vk.com/images/places/clubs.png,55.832217,37.629313,308,Крамбамбуля,Клуб,1344102306.0
308,308,24-й км Киевского ш. 6,0,2.0,1,1280741941,https://vk.com/images/places/clubs.png,59.915034,30.314673,309,Street Life,Клуб,
309,309,Милютинский пер. 13,4,1.0,1,1280741941,https://vk.com/images/places/clubs.png,55.764921,37.63182,310,Hardcore,Клуб,1322664436.0
310,310,Думская 9,55,2.0,1,1280741941,https://vk.com/images/places/clubs.png,59.932842,30.327445,311,Улитка на склоне,Клуб,1506196222.0
311,311,Революционная 146,187,123.0,1,1280741941,https://vk.com/images/places/clubs.png,53.194001,50.180044,312,Метелица-С,Клуб,1507418042.0
312,312,Комсомольский просп. 28,0,1.0,1,1280741941,https://vk.com/images/places/clubs.png,55.727019,37.579681,313,Арагоста,Клуб,1322197698.0
313,313,наб. Обводного канала 181,0,2.0,1,1280741941,https://vk.com/images/places/clubs.png,59.909463,30.294332,314,Рокси,Клуб,1343427393.0
314,314,Спиридоньевский пер. 2,1,1.0,1,1280741941,https://vk.com/images/places/clubs.png,55.761654,37.593381,315,Экипаж,Клуб,1379715710.0
315,315,Б.Ордынка 40К1,5,1.0,1,1280741941,https://vk.com/images/places/clubs.png,55.736584,37.623905,316,Cotton Club,Клуб,1347824369.0
316,316,Кировоградская 36а,9,1.0,1,1280741941,https://vk.com/images/places/clubs.png,55.603202,37.599067,317,Goodwin,Клуб,1446486781.0
317,317,Гиляровского 4К2,323,1.0,1,1280741941,https://vk.com/images/places/clubs.png,55.77472,37.630751,318,Эгоистка,Клуб,1507431404.0
318,318,Дмитровское ш. 27,0,1.0,1,1280741941,https://vk.com/images/places/clubs.png,55.826554,37.571318,319,Cadilluck,Клуб,1401088585.0
319,319,Серпуховский Вал 17,5,1.0,1,1280741941,https://vk.com/images/places/clubs.png,55.710824,37.613207,320,Живой уголок,Клуб,1377285220.0
320,320,Рождественка 6К9,40,1.0,1,1280741941,https://vk.com/images/places/clubs.png,55.760859,37.623834,321,Spirit,Клуб,1432737363.0
321,321,Гарибальди 19,21,1.0,1,1280741941,https://vk.com/images/places/clubs.png,55.672686,37.549875,322,Оркестрион,Клуб,1485599642.0
322,322,Пушечная 9К6,0,1.0,1,1280741941,https://vk.com/images/places/clubs.png,55.760824,37.624462,323,Арт`Эриа,Клуб,
323,323,Трубниковский пер. 11,3,1.0,1,1280741941,https://vk.com/images/places/clubs.png,55.753215,37.586356,324,One More,Клуб,1371390691.0
324,324,Стромынка 6,6,1.0,1,1280741941,https://vk.com/images/places/clubs.png,55.791253,37.687336,325,Бакинский дворик,Клуб,1487459206.0
325,325,1-я Тверская-Ямская 9,5,1.0,1,1280741941,https://vk.com/images/places/clubs.png,55.772097,37.591916,326,Sungate,Клуб,1368653912.0
326,326,Луганская 14,2,2.0,1,1280741941,https://vk.com/images/places/clubs.png,59.902149,30.384859,327,Fort MC,Клуб,1430314395.0
327,327,Варшавское ш. 135а,6,1.0,1,1280741941,https://vk.com/images/places/clubs.png,55.59572,37.602651,328,Миг-21,Клуб,1422793454.0
328,328,1-я Останкинская 53,69,1.0,1,1280741941,https://vk.com/images/places/clubs.png,55.824314,37.632053,329,Mezzo Forte,Клуб,1506191551.0
329,329,Мясницкая 13,3,1.0,1,1280741941,https://vk.com/images/places/clubs.png,55.762449,37.632395,330,Starz,Клуб,1355003759.0
330,330,наб. реки Мойки 82,0,2.0,1,1280741941,https://vk.com/images/places/clubs.png,59.929867,30.303462,331,Объект,Клуб,1349528287.0
331,331,Милютинский пер. 6К1,2,1.0,1,1280741941,https://vk.com/images/places/clubs.png,55.762019,37.63222,332,База,Клуб,1341426749.0
332,332,Олимпийский просп. 16К1,9,1.0,1,1280741941,https://vk.com/images/places/clubs.png,55.781203,37.626396,333,Анфилада,Клуб,1414142729.0
333,333,Пушечная 9К6,0,1.0,1,1280741941,https://vk.com/images/places/clubs.png,55.760824,37.624462,334,Hungry Duck,Клуб,
334,334,Свердловский просп. 51,2,158.0,1,1280741941,https://vk.com/images/places/clubs.png,55.168922,61.391276,335,BeenGo,Клуб,1355540965.0
335,335,Правды 1,0,1.0,1,1280741941,https://vk.com/images/places/clubs.png,55.783149,37.575172,336,Jimi,Клуб,1352232950.0
336,336,Октябрьская 53,0,78.0,1,1280741941,https://vk.com/images/places/clubs.png,52.601634,39.596225,337,Камин,Клуб,1337109329.0
337,337,38-й км Ярославского ш. 19,3,78.0,1,1280741941,https://vk.com/images/places/clubs.png,52.388988,38.927415,338,Galaxy,Клуб,1438689623.0
338,338,Софьи Перовской 25К26,0,87.0,1,1280741941,https://vk.com/images/places/clubs.png,68.970837,33.087746,339,Пивной дом,Клуб,1352528579.0
339,339,Кирова 161,1,158.0,1,1280741941,https://vk.com/images/places/clubs.png,55.164305,61.401943,340,Deja-Vu,Клуб,1348045983.0
340,340,Старостина 2,7,87.0,1,1280741941,https://vk.com/images/places/clubs.png,68.967013,33.103322,341,Айсберг,Клуб,1489255744.0
341,341,Варшавское ш. 27,60,1.0,1,1280741941,https://vk.com/images/places/clubs.png,55.69352,37.622046,342,Нэо,Клуб,1503067223.0
342,342,Бардина 21а,0,49.0,1,1280741941,https://vk.com/images/places/clubs.png,56.803041,60.556116,343,Родонит-95,Клуб,1349807361.0
343,343,Варшавская 23,5,2.0,1,1280741941,https://vk.com/images/places/clubs.png,59.874241,30.311107,344,Столица,Клуб,1375384673.0
344,344,просп. Ленина 35,40,158.0,1,1280741941,https://vk.com/images/places/clubs.png,55.160123,61.415728,345,Madflat,Клуб,1471348838.0
345,345,ул. 8 Марта 43,1,49.0,1,1280741941,https://vk.com/images/places/clubs.png,56.825936,60.604889,346,Арлекино,Клуб,1505483274.0
346,346,Зеленоградская 9,3,49.0,1,1280741941,https://vk.com/images/places/clubs.png,56.848755,60.612155,347,Водолей,Клуб,1401136062.0
347,347,"Кронштадт, Макаровская 1",0,2.0,1,1280741941,https://vk.com/images/places/clubs.png,59.929249,30.333682,348,Центральная станция,Клуб,
348,348,Моховая 37,1,2.0,1,1280741941,https://vk.com/images/places/clubs.png,59.940244,30.344237,349,Pin-Up,Клуб,1338600975.0
349,349,Красноармейская 10,5,49.0,1,1280741941,https://vk.com/images/places/clubs.png,56.837179,60.615135,350,Чили,Клуб,1457118075.0
350,350,ул. 50 лет ВЛКСМ 5,19,134.0,1,1280741941,https://vk.com/images/places/clubs.png,45.020112,41.924204,351,Новый Рим,Клуб,1506053287.0
351,351,Сулимова 50,231,49.0,1,1280741941,https://vk.com/images/places/clubs.png,56.863336,60.630856,352,Park House,Клуб,1507458374.0
352,352,1-я линия В.О. ,0,2.0,1,1280741941,https://vk.com/images/places/clubs.png,59.943724,30.288119,353,S-club,Клуб,1317505317.0
353,353,ул. 8 Марта 212,0,49.0,1,1280741941,https://vk.com/images/places/clubs.png,56.78597,60.605195,354,Static,Клуб,
354,354,просп. Октября 79К1,44,151.0,1,1280741941,https://vk.com/images/places/clubs.png,54.77305,56.021663,355,Правда,Клуб,1495882043.0
355,355,Братьев Фонченко 12,0,151.0,1,1280741941,https://vk.com/images/places/clubs.png,54.794591,55.866192,356,Чаша,Клуб,1411114935.0
356,356,Лесотехникума 49К1,0,151.0,1,1280741941,https://vk.com/images/places/clubs.png,54.751554,56.029541,357,Элемент,Клуб,1370769611.0
357,357,Бутлерова 16,0,60.0,1,1280741941,https://vk.com/images/places/clubs.png,55.7865,49.130629,358,Коммуна,Клуб,1354351249.0
358,358,Пушкина 28,3,60.0,1,1280741941,https://vk.com/images/places/clubs.png,55.791233,49.125,359,Fashion Club,Клуб,1381153771.0
359,359,Новомарьинская 19,20,151.0,1,1280741941,https://vk.com/images/places/clubs.png,54.738001,55.971264,360,Колизео,Клуб,1459531856.0
360,360,просп. Октября 91,34,151.0,1,1280741941,https://vk.com/images/places/clubs.png,54.777214,56.028921,361,Проспект,Клуб,1501409441.0
361,361,Мира 14,5,151.0,1,1280741941,https://vk.com/images/places/clubs.png,54.813822,56.066767,362,Книжка,Клуб,1502293992.0
362,362,Рихарда Зорге 17,17,151.0,1,1280741941,https://vk.com/images/places/clubs.png,54.75277,55.986593,363,Agava,Клуб,1486485239.0
363,363,Балаклавский просп. 7,0,1.0,1,1280741941,https://vk.com/images/places/clubs.png,55.640772,37.603289,364,Дион,Клуб,1323477549.0
364,364,Ахметова 311К1,3,151.0,1,1280741941,https://vk.com/images/places/clubs.png,54.791959,55.876747,365,Зодиак,Клуб,1423478683.0
365,365,ЦПКиО им. Горького 3,17,1.0,1,1280741941,https://vk.com/images/places/clubs.png,55.744566,37.651897,366,Высоцкий,Клуб,1377712170.0
366,366,наб. 62-й Армии 6,0,10.0,1,1280741941,https://vk.com/images/places/clubs.png,48.708898,44.514258,367,Golden Night,Клуб,1385403262.0
367,367,Островского 5,3,10.0,1,1280741941,https://vk.com/images/places/clubs.png,48.709404,44.517882,368,Белая лошадь,Клуб,1495387531.0
368,368,Б.Тульская ,1,146.0,1,1280741941,https://vk.com/images/places/clubs.png,54.120321,37.54665,369,Даяна,Клуб,1367684479.0
369,369,Б.Садовая 64,0,119.0,1,1280741941,https://vk.com/images/places/clubs.png,47.227206,39.744943,370,Джотто,Клуб,
370,370,Горького 141,59,95.0,1,1280741941,https://vk.com/images/places/clubs.png,56.31574,44.00595,371,Teatro,Клуб,1503777936.0
371,371,Луначарского 85а,3,49.0,1,1280741941,https://vk.com/images/places/clubs.png,56.84705,60.619411,372,Ча-И,Клуб,1492797440.0
372,372,наб. 62-й Армии 6,7,10.0,1,1280741941,https://vk.com/images/places/clubs.png,48.708948,44.514208,373,Пиранья,Клуб,1472416173.0
373,373,Мира 5,3,10.0,1,1280741941,https://vk.com/images/places/clubs.png,48.707781,44.512367,374,Romeo,Клуб,1422557981.0
374,374,Краснознаменская 8,12,10.0,1,1280741941,https://vk.com/images/places/clubs.png,48.704267,44.510992,375,Каир,Клуб,1431781040.0
375,375,Коломенская 23К25,86,1.0,1,1280741941,https://vk.com/images/places/clubs.png,55.770861,37.631981,376,Сахар,Клуб,1440283148.0
376,376,50-летия Октября 19,0,151.0,1,1280741941,https://vk.com/images/places/clubs.png,54.738051,55.971214,377,Pit stop,Клуб,
377,377,Большакова 90б,193,49.0,1,1280741941,https://vk.com/images/places/clubs.png,56.817287,60.594223,378,Уралец,Клуб,1507462209.0
378,378,Парижской Коммуны 26,27,60.0,1,1280741941,https://vk.com/images/places/clubs.png,55.780709,49.11025,379,Manhattan Club,Клуб,1407848173.0
379,379,Соляной пер. 14,0,2.0,1,1280741941,https://vk.com/images/places/clubs.png,59.94321,30.341955,380,Муха-цокотуха,Клуб,1333367707.0
380,380,Староваганьковский пер. 9,0,1.0,1,1280741941,https://vk.com/images/places/clubs.png,55.750905,37.606227,381,Алоэ,Клуб,
381,381,просп. Энгельса ,0,2.0,1,1280741941,https://vk.com/images/places/clubs.png,60.046576,30.330421,382,Король Плющ,Клуб,1375986712.0
382,382,Александровский парк 4,17,2.0,1,1280741941,https://vk.com/images/places/clubs.png,59.953754,30.317494,383,Parkking,Клуб,1507305899.0
383,383,Тургеневская пл. 11,8,158.0,1,1280741941,https://vk.com/images/places/clubs.png,55.171247,61.451611,384,Панта Рэй,Клуб,1476827566.0
384,384,Октябрьская 12,2,37.0,1,1280741941,https://vk.com/images/places/clubs.png,43.123636,131.889213,385,Ex Jumanji,Клуб,1354664865.0
385,385,Свердловский просп. 51а,21,158.0,1,1280741941,https://vk.com/images/places/clubs.png,55.169725,61.391765,386,DJ Парк Inside,Клуб,1404582313.0
386,386,Чистопрудный бульвар 93,1,158.0,1,1280741941,https://vk.com/images/places/clubs.png,55.131007,61.43342,387,Аврора,Клуб,1493831005.0
387,387,Новая 57,12,158.0,1,1280741941,https://vk.com/images/places/clubs.png,55.161471,61.409147,388,Baden Baden,Клуб,1506249759.0
388,388,Энтузиастов 11,214,158.0,1,1280741941,https://vk.com/images/places/clubs.png,55.155808,61.376314,389,Garage Underground,Клуб,1507219226.0
389,389,наб. канала Грибоедова 26,0,2.0,1,1280741941,https://vk.com/images/places/clubs.png,59.936422,30.327474,390,10 ангелов,Клуб,1370698646.0
390,390,Мусы Джалиля 11,93,99.0,1,1280741941,https://vk.com/images/places/clubs.png,54.862653,83.08996,391,Бункер,Клуб,1507419258.0
391,391,Пушкина 29а,204,60.0,1,1280741941,https://vk.com/images/places/clubs.png,55.792281,49.124429,392,Luxor,Клуб,1506806249.0
392,392,Угличская 12К2,1,1.0,1,1280741941,https://vk.com/images/places/clubs.png,55.896797,37.568965,393,Musik,Клуб,1354187469.0
393,393,"Кузнецкий Мост, 17",7,1.0,1,1280741941,https://vk.com/images/places/clubs.png,55.784091,37.584757,394,Про100 бар,Клуб,1405284602.0
394,394,Средняя 8а,4,1.0,1,1280741941,https://vk.com/images/places/clubs.png,55.603258,37.731164,395,99,Клуб,1354256146.0
395,395,Объединения 27,5,99.0,1,1280741941,https://vk.com/images/places/clubs.png,55.09745,82.964905,396,Современник,Клуб,1484458563.0
396,396,Полярные Зори 51К33,0,87.0,1,1280741941,https://vk.com/images/places/clubs.png,67.374576,32.503602,397,Лоцман,Клуб,
397,397,Забелина 1,7,1.0,1,1280741941,https://vk.com/images/places/clubs.png,55.754466,37.637267,398,Ультра,Клуб,1417468759.0
398,398,Ленинградская 75,0,158.0,1,1280741941,https://vk.com/images/places/clubs.png,55.158184,61.379018,399,Shury Mury,Клуб,1323759714.0
399,399,Восточная ,2,49.0,1,1280741941,https://vk.com/images/places/clubs.png,56.837667,60.633443,400,Goa,Клуб,1501690350.0
400,400,ул. 8 Марта 46,0,49.0,1,1280741941,https://vk.com/images/places/clubs.png,56.829143,60.599585,401,Каре-клуб,Клуб,1345813254.0
401,401,Леонтьевская 17,4,99.0,1,1280741941,https://vk.com/images/places/clubs.png,54.860036,83.084678,402,Мадагаскар,Клуб,1438982557.0
402,402,Челюскинцев 15,0,99.0,1,1280741941,https://vk.com/images/places/clubs.png,55.040162,82.90661,403,Diesel,Клуб,1349237087.0
403,403,Оранжерейная 6,6,99.0,1,1280741941,https://vk.com/images/places/clubs.png,54.986588,82.815506,404,Ferrum,Клуб,1442511228.0
404,404,Селезнева 46,0,99.0,1,1280741941,https://vk.com/images/places/clubs.png,55.045274,82.946714,405,Base,Клуб,1349541584.0
405,405,Удальцова 75а,18,1.0,1,1280741941,https://vk.com/images/places/clubs.png,55.678062,37.495797,406,Folk Club,Клуб,1489981205.0
406,406,Каменская 19,4,99.0,1,1280741941,https://vk.com/images/places/clubs.png,55.027057,82.928829,407,Арт-дача,Клуб,1463586020.0
407,407,Советская ,2,99.0,1,1280741941,https://vk.com/images/places/clubs.png,55.033264,82.915512,408,Аквариум,Клуб,1354505795.0
408,408,Московская 10,5,169.0,1,1280741941,https://vk.com/images/places/clubs.png,57.585008,39.834462,409,Авангард,Клуб,1489224774.0
409,409,Свободы 34в,4,169.0,1,1280741941,https://vk.com/images/places/clubs.png,57.626598,39.874257,410,Комета-бум,Клуб,1390327566.0
410,410,Гагарина 9,0,169.0,1,1280741941,https://vk.com/images/places/clubs.png,57.588617,39.851224,411,Партизан,Клуб,1352399331.0
411,411,Собинова 15К14,0,169.0,1,1280741941,https://vk.com/images/places/clubs.png,57.629335,39.88298,412,Тарзан,Клуб,1333998046.0
412,412,Новодеревенская 30,3,169.0,1,1280741941,https://vk.com/images/places/clubs.png,57.653917,39.964969,413,Айсберг,Клуб,1442549474.0
413,413,Волжская наб. 2,3,169.0,1,1280741941,https://vk.com/images/places/clubs.png,57.632578,39.894451,414,Joy Party,Клуб,1387290561.0
414,414,В. Красносельская 136,3,10.0,1,1280741941,https://vk.com/images/places/clubs.png,48.808543,44.767917,415,Белая акула,Клуб,1340399661.0
415,415,В. Красносельская 47а,1,10.0,1,1280741941,https://vk.com/images/places/clubs.png,48.808524,44.767862,416,Какаду,Клуб,1308079052.0
416,416,Мушникова ,3,151.0,1,1280741941,https://vk.com/images/places/clubs.png,54.780179,56.116561,417,Гольфстрим,Клуб,1447435560.0
417,417,Богдана Хмельницкого 11,3,99.0,1,1280741941,https://vk.com/images/places/clubs.png,55.068406,82.939231,418,Ва-банк,Клуб,1505130982.0
418,418,Толмачева 12,4,49.0,1,1280741941,https://vk.com/images/places/clubs.png,56.838258,60.61024,419,Салют,Клуб,1476468738.0
419,419,Энгельса 1К1,2,99.0,1,1280741941,https://vk.com/images/places/clubs.png,54.871906,83.106457,420,Черная кошка,Клуб,1458799727.0
420,420,просп. Карла Маркса 49,12,99.0,1,1280741941,https://vk.com/images/places/clubs.png,54.991098,82.908302,421,Щука,Клуб,1476074400.0
421,421,Павильон Урицкого 15,1,99.0,1,1280741941,https://vk.com/images/places/clubs.png,55.0333,82.913203,422,Эгоист,Клуб,1334413569.0
422,422,Широкая 15,18,99.0,1,1280741941,https://vk.com/images/places/clubs.png,54.846084,82.965795,423,Бумеранг,Клуб,1474097670.0
423,423,Ватутина 17К1,51,99.0,1,1280741941,https://vk.com/images/places/clubs.png,54.986578,82.891243,424,Бегемот,Клуб,1488396674.0
424,424,Советская ,1,99.0,1,1280741941,https://vk.com/images/places/clubs.png,55.033307,82.915437,425,Голодный койот,Клуб,1355664999.0
425,425,Железнодорожная 46,0,99.0,1,1280741941,https://vk.com/images/places/clubs.png,55.083668,82.963019,426,Winners,Клуб,1348338062.0
426,426,Красный просп. 52,1,99.0,1,1280741941,https://vk.com/images/places/clubs.png,55.035911,82.919585,427,Джага,Клуб,1344609536.0
427,427,Добролюбова 2К3,1,99.0,1,1280741941,https://vk.com/images/places/clubs.png,55.002573,82.943642,428,Золотой галеон,Клуб,1343543782.0
428,428,Вахтангова 5б,2,99.0,1,1280741941,https://vk.com/images/places/clubs.png,54.851557,83.046481,429,Капкан,Клуб,1505495184.0
429,429,Богдана Хмельницкого 19,0,99.0,1,1280741941,https://vk.com/images/places/clubs.png,55.069932,82.94189,430,Отдых,Клуб,1381021417.0
430,430,Красный просп. 167,2,99.0,1,1280741941,https://vk.com/images/places/clubs.png,55.064323,82.910279,431,Пульс,Клуб,1345895925.0
431,431,Фрунзе 2,35,99.0,1,1280741941,https://vk.com/images/places/clubs.png,55.035756,82.915112,432,Труба,Клуб,1482668118.0
432,432,Павильон Урицкого 16,15,99.0,1,1280741941,https://vk.com/images/places/clubs.png,55.031211,82.9146,433,Alpen Grotte,Клуб,1444762016.0
433,433,просп. Победы 312,22,158.0,1,1280741941,https://vk.com/images/places/clubs.png,55.189969,61.341235,434,Мистер Икс,Клуб,1485278869.0
434,434,Октябрьская 42,1,99.0,1,1280741941,https://vk.com/images/places/clubs.png,55.02427,82.920115,435,Амнезия,Клуб,1377615928.0
435,435,Генерала Хазова 3,4,119.0,1,1280741941,https://vk.com/images/places/clubs.png,47.24186,39.700685,436,Paradox,Клуб,1422804639.0
436,436,Школьная 2а,2,119.0,1,1280741941,https://vk.com/images/places/clubs.png,47.274133,39.734255,437,The Real McCoy,Клуб,1382120682.0
437,437,просп. Космонавтов 15а,10,119.0,1,1280741941,https://vk.com/images/places/clubs.png,47.285767,39.715763,438,Авеню,Клуб,1485441280.0
438,438,Коммунистический просп. 10,1,119.0,1,1280741941,https://vk.com/images/places/clubs.png,47.209047,39.64101,439,Подводный мир,Клуб,1350332738.0
439,439,Шаумяна 71,14,119.0,1,1280741941,https://vk.com/images/places/clubs.png,47.221435,39.715336,440,Баба Люба,Клуб,1489253789.0
440,440,Крепостной пер. 70,1,119.0,1,1280741941,https://vk.com/images/places/clubs.png,47.225664,39.737013,441,Relax,Клуб,1499851644.0
441,441,просп. Шолохова 128,4,119.0,1,1280741941,https://vk.com/images/places/clubs.png,47.242129,39.765229,442,Люди,Клуб,1501943667.0
442,442,просп. Сельмаш 3,11,119.0,1,1280741941,https://vk.com/images/places/clubs.png,47.249721,39.763324,443,Подземка,Клуб,1507452974.0
443,443,Октябрьский б-р 32,3,110.0,1,1280741941,https://vk.com/images/places/clubs.png,57.973599,56.234815,444,Crazy Club,Клуб,1487519113.0
444,444,Социалистическая 55,18,119.0,1,1280741941,https://vk.com/images/places/clubs.png,47.219146,39.708437,445,Cuba Libre,Клуб,1472467734.0
445,445,Береговая 10,1,119.0,1,1280741941,https://vk.com/images/places/clubs.png,47.213216,39.711033,446,Титаник,Клуб,1347716728.0
446,446,Левобережная 72,66,119.0,1,1280741941,https://vk.com/images/places/clubs.png,47.203917,39.76941,447,Embargo,Клуб,1504599930.0
447,447,просп. Стачки 222,7,119.0,1,1280741941,https://vk.com/images/places/clubs.png,47.212616,39.617896,448,Золотая подкова,Клуб,1473948592.0
448,448,Буденновский просп. ,7,119.0,1,1280741941,https://vk.com/images/places/clubs.png,47.228736,39.703847,449,Chester Pub,Клуб,1496143947.0
449,449,Плехановская 9,7,42.0,1,1280741941,https://vk.com/images/places/clubs.png,51.662384,39.198517,450,Фламинго,Клуб,1391940052.0
450,450,просп. Стачки 213,3,119.0,1,1280741941,https://vk.com/images/places/clubs.png,47.210914,39.63279,451,Флэш,Клуб,1378043458.0
451,451,пл. Труда 2,3,169.0,1,1280741941,https://vk.com/images/places/clubs.png,57.628684,39.866388,452,Пятница,Клуб,1449821613.0
452,452,Малышева 53,0,49.0,1,1280741941,https://vk.com/images/places/clubs.png,56.836416,60.615661,453,Parkking,Клуб,1355592171.0
453,453,Москворечье 31К2,2,1.0,1,1280741941,https://vk.com/images/places/clubs.png,55.645857,37.659811,454,Шансон,Клуб,1347551631.0
454,454,Арбат 20,50,1.0,1,1280741941,https://vk.com/images/places/clubs.png,55.75052,37.593273,455,Doolin House,Клуб,1503987983.0
455,455,Земляной Вал 50,28,1.0,1,1280741941,https://vk.com/images/places/clubs.png,55.7513,37.654161,456,Концерт,Клуб,1454149748.0
456,456,8-я линия В.О. 1К20,2,2.0,1,1280741941,https://vk.com/images/places/clubs.png,59.936197,30.28369,457,V-illa,Клуб,1387991441.0
457,457,Дмитровское ш. 1К27,11,1.0,1,1280741941,https://vk.com/images/places/clubs.png,55.810683,37.578451,458,Молодая гвардия,Клуб,1507202243.0
458,458,Рылеева 12,1,2.0,1,1280741941,https://vk.com/images/places/clubs.png,59.942723,30.358475,459,Jam Point,Клуб,1351939765.0
459,459,Маяковского 51а,3,1.0,1,1280741941,https://vk.com/images/places/clubs.png,55.732154,37.620609,460,Bells,Клуб,1354376162.0
460,460,Московский просп. 21,6,2.0,1,1280741941,https://vk.com/images/places/clubs.png,59.917001,30.316596,461,Havana Club,Клуб,1386504486.0
461,461,Столешников пер. 7К1,1,1.0,1,1280741941,https://vk.com/images/places/clubs.png,55.763012,37.61441,462,Пластилин,Клуб,1337691953.0
462,462,Большой просп. В.О. 80,1,2.0,1,1280741941,https://vk.com/images/places/clubs.png,59.930241,30.253435,463,Джамбала,Клуб,1482929972.0
463,463,В.Масловка 21,6,1.0,1,1280741941,https://vk.com/images/places/clubs.png,55.795894,37.560529,464,Кактус,Клуб,1431166960.0
464,464,Радищева 19К2,3,1.0,1,1280741941,https://vk.com/images/places/clubs.png,55.664228,37.660943,465,Zona,Клуб,1416687404.0
465,465,Октябрьский 1,1,1.0,1,1280741941,https://vk.com/images/places/clubs.png,55.774836,37.609326,466,Эгоист,Клуб,1342803492.0
466,466,Гороховая 22,10,2.0,1,1280741941,https://vk.com/images/places/clubs.png,59.931156,30.318383,467,Zoom,Клуб,1449872439.0
467,467,Ленинский просп. 6,19,1.0,1,1280741941,https://vk.com/images/places/clubs.png,55.727176,37.606936,468,Точка,Клуб,1366997514.0
468,468,Заставская 33,6,2.0,1,1280741941,https://vk.com/images/places/clubs.png,59.889467,30.315446,469,Триэль,Клуб,1501331168.0
469,469,Страстной б-р 8а,18,1.0,1,1280741941,https://vk.com/images/places/clubs.png,55.766258,37.610767,470,VIP,Клуб,1393026678.0
470,470,Уральская 8а,5,2.0,1,1280741941,https://vk.com/images/places/clubs.png,59.952281,30.263406,471,Классик,Клуб,1496863923.0
471,471,Софийская 47,2,2.0,1,1280741941,https://vk.com/images/places/clubs.png,59.870913,30.405457,472,Help,Клуб,1342879246.0
472,472,Котина 2,3,2.0,1,1280741941,https://vk.com/images/places/clubs.png,59.855927,30.209346,473,Cotin Club,Клуб,1431002052.0
473,473,Маяковского 50,10,2.0,1,1280741941,https://vk.com/images/places/clubs.png,59.942858,30.354639,474,Красный лис,Клуб,1506618852.0
474,474,3-я ул. Ямского поля 15,97,1.0,1,1280741941,https://vk.com/images/places/clubs.png,55.782529,37.579306,475,Golden Girls,Клуб,1501871863.0
475,475,Куусинена 19а,8,1.0,1,1280741941,https://vk.com/images/places/clubs.png,55.788019,37.51123,476,Душа и тело,Клуб,1460811356.0
476,476,Климентовский пер. 10К1,1,1.0,1,1280741941,https://vk.com/images/places/clubs.png,55.741039,37.627777,477,Апшу,Клуб,1398891496.0
477,477,Новослободская 23,1,1.0,1,1280741941,https://vk.com/images/places/clubs.png,55.781474,37.598366,478,Мандат,Клуб,1347167605.0
478,478,2-й Колобовский пер. 12,11,1.0,1,1280741941,https://vk.com/images/places/clubs.png,55.769266,37.616431,479,Элефант,Клуб,1506502950.0
479,479,Строгинское ш. ,5,1.0,1,1280741941,https://vk.com/images/places/clubs.png,55.753559,37.609218,480,Beach Club,Клуб,1466588216.0
480,480,Петровка 18К2,6,1.0,1,1280741968,https://vk.com/images/places/clubs.png,55.765979,37.615587,481,911 Aurora,Клуб,1425237512.0
481,481,Спиридоновка 40К26,11,1.0,1,1280741968,https://vk.com/images/places/clubs.png,55.76328,37.58862,482,Эгоист Голд,Клуб,1503955617.0
482,482,Каланчевская 15а,2,1.0,1,1280741968,https://vk.com/images/places/clubs.png,55.77233,37.651834,483,Бард-ретро,Клуб,1280930737.0
483,483,наб. реки Фонтанки 11,213,2.0,1,1280741968,https://vk.com/images/places/clubs.png,59.936755,30.342853,484,Пурга,Клуб,1507403643.0
484,484,Новорязанская 26,3,1.0,1,1280741968,https://vk.com/images/places/clubs.png,55.771763,37.66565,485,Контакт,Клуб,1355375067.0
485,485,Баумана 58,1,60.0,1,1280741968,https://vk.com/images/places/clubs.png,55.789983,49.115366,486,Белая акула,Клуб,1346818332.0
486,486,Мироновская 2,4,1.0,1,1280741968,https://vk.com/images/places/clubs.png,55.785382,37.734237,487,Atmosfera,Клуб,1461173338.0
487,487,Чапаева 3,3,2.0,1,1280741968,https://vk.com/images/places/clubs.png,59.958494,30.333143,488,Абсурд,Клуб,1395474107.0
488,488,Адоратского 12а,12,60.0,1,1280741968,https://vk.com/images/places/clubs.png,55.832389,49.14841,489,London,Клуб,1477242768.0
489,489,просп. Мориса Тореза ,1,2.0,1,1280741968,https://vk.com/images/places/clubs.png,60.014828,30.340653,490,Relax,Клуб,1338663815.0
490,490,Б.Лубянка 24,187,1.0,1,1280741968,https://vk.com/images/places/clubs.png,55.765301,37.63111,491,Скромное обаяние буржуазии,Клуб,1450126141.0
491,491,Шишкова ,4,61.0,1,1280741968,https://vk.com/images/places/clubs.png,54.722586,20.462984,492,Универсал,Клуб,1388621251.0
492,492,просп. Большевиков ,4,2.0,1,1280741968,https://vk.com/images/places/clubs.png,59.894874,30.491444,493,Пати-фон,Клуб,1343111305.0
493,493,Карла Маркса 116,5,42.0,1,1280741968,https://vk.com/images/places/clubs.png,51.674237,39.193361,494,NC,Клуб,1398732975.0
494,494,просп. Дзержинского ,0,99.0,1,1280741968,https://vk.com/images/places/clubs.png,55.058085,82.979948,495,Пейот,Клуб,1292169890.0
495,495,Болотная наб. 3К1,482,1.0,1,1280741968,https://vk.com/images/places/clubs.png,55.739787,37.610125,496,Rolling Stone Bar & Tattoo,Клуб,1506867934.0
496,496,Ленина 88,28,110.0,1,1280741968,https://vk.com/images/places/clubs.png,58.005677,56.209748,497,Wonder Hall,Клуб,1505037050.0
497,497,Караванная 26,20,2.0,1,1280741968,https://vk.com/images/places/clubs.png,59.933952,30.342126,498,Трибунал-бар,Клуб,1472385555.0
498,498,наб. канала Грибоедова 6,3,2.0,1,1280741968,https://vk.com/images/places/clubs.png,59.937423,30.327888,499,Embargo,Клуб,1353103702.0
499,499,Соловьиный пр. 4а,2,1.0,1,1280741968,https://vk.com/images/places/clubs.png,55.616066,37.550199,500,Club 31,Клуб,1504897019.0
500,500,Декабристов 4К1,5,1.0,1,1280741968,https://vk.com/images/places/clubs.png,55.86748,37.589985,501,Action,Клуб,1432961854.0
501,501,Наметкина 9,3,1.0,1,1280741968,https://vk.com/images/places/clubs.png,55.664177,37.550899,502,Колизей,Клуб,1479579210.0
502,502,Павловское ш. 13,0,1.0,1,1280741968,https://vk.com/images/places/clubs.png,55.740771,37.660449,503,Табуретка,Клуб,
503,503,просп. Мира 26,9,1.0,1,1280741968,https://vk.com/images/places/clubs.png,55.777611,37.635027,504,Мадам Галифэ,Клуб,1426441435.0
504,504,Космодамианская наб. 2,48,1.0,1,1280741968,https://vk.com/images/places/clubs.png,55.745595,37.638773,505,Fabrique,Клуб,1477421493.0
505,505,наб. реки Фонтанки 11,2,2.0,1,1280741968,https://vk.com/images/places/clubs.png,59.947586,30.338883,506,Пурга 2,Клуб,1385756748.0
506,506,Церковная 2К1,0,1.0,1,1280741968,https://vk.com/images/places/clubs.png,55.749121,37.662389,507,Сол,Клуб,
507,507,Ленинградский просп. 24а,13,1.0,1,1280741968,https://vk.com/images/places/clubs.png,55.783251,37.574336,508,Ленинград,Клуб,1405196510.0
508,508,Столешников пер. 11,222,1.0,1,1280741968,https://vk.com/images/places/clubs.png,55.763366,37.61583,509,Gogol`,Клуб,1505415853.0
509,509,Блохина 15,366,2.0,1,1280741968,https://vk.com/images/places/clubs.png,59.952029,30.301199,510,Котельная «Камчатка»,Клуб,1506797106.0
510,510,Кривоколенный пер. 10К5,40,1.0,1,1280741968,https://vk.com/images/places/clubs.png,55.761664,37.636015,511,Bilingua,Клуб,1367941914.0
511,511,Складочная 1,39,1.0,1,1280741968,https://vk.com/images/places/clubs.png,55.798839,37.59321,512,Gaudi Club,Клуб,1495524082.0
512,512,Гражданская 3,0,2.0,1,1280741968,https://vk.com/images/places/clubs.png,59.928717,30.314673,513,Пре,Клуб,
513,513,М.Ордынка 37К1,18,1.0,1,1280741968,https://vk.com/images/places/clubs.png,55.732626,37.625774,514,Jet Set,Клуб,1445918660.0
514,514,наб. Лейтенанта Шмидта ,3,2.0,1,1280741968,https://vk.com/images/places/clubs.png,59.933456,30.276365,515,Пуэр,Клуб,1347263406.0
515,515,Новослободская 14К4,5,1.0,1,1280741968,https://vk.com/images/places/clubs.png,55.780841,37.59992,516,Loft Bar,Клуб,1355751312.0
516,516,Правды 21К2,24,1.0,1,1280741968,https://vk.com/images/places/clubs.png,55.788312,37.580202,517,Братья Блюз,Клуб,1495324618.0
517,517,Новосущевский пер. 6,5,1.0,1,1280741968,https://vk.com/images/places/clubs.png,55.790018,37.60549,518,Скворечник,Клуб,1394789125.0
518,518,Академический просп. К110,175,1.0,1,1280741968,https://vk.com/images/places/clubs.png,55.765534,37.472584,519,Sexton,Клуб,1506195563.0
519,519,наб. Северной Двины 44,10,1.0,1,1280741968,https://vk.com/images/places/clubs.png,55.722771,37.626762,520,Инкогнито,Клуб,1446245683.0
520,520,Б.Овчинниковский пер. 24,1,1.0,1,1280741968,https://vk.com/images/places/clubs.png,55.74412,37.628765,521,Центр авторской песни,Клуб,1315584707.0
521,521,Мясницкая К3,20,1.0,1,1280741968,https://vk.com/images/places/clubs.png,55.76019,37.629771,522,Петрович,Клуб,1482490048.0
522,522,Мичуринский просп. 4К3,0,1.0,1,1280741968,https://vk.com/images/places/clubs.png,55.683798,37.468578,523,Сейшн,Клуб,1391892578.0
523,523,Яузская 5,39,1.0,1,1280741968,https://vk.com/images/places/clubs.png,55.749344,37.645285,524,Культ,Клуб,1439056846.0
524,524,Б.Садовая 8,179,1.0,1,1280741968,https://vk.com/images/places/clubs.png,55.765959,37.591503,525,Б2,Клуб,1424039343.0
525,525,Варварка 14,0,1.0,1,1280741968,https://vk.com/images/places/clubs.png,55.752566,37.632125,526,Матрица,Клуб,1340631527.0
526,526,Бажова 75а,2,49.0,1,1280741968,https://vk.com/images/places/clubs.png,56.844284,60.626045,527,Аэробус,Клуб,1338095419.0
527,527,Поморская 125а,10,1.0,1,1280741968,https://vk.com/images/places/clubs.png,55.803889,37.743121,528,Локстрим,Клуб,1353745461.0
528,528,ш. Энтузиастов 7а,66,1.0,1,1280741968,https://vk.com/images/places/clubs.png,55.749476,37.701161,529,Эра,Клуб,1461357512.0
529,529,Бережковская наб. 8,21,1.0,1,1280741968,https://vk.com/images/places/clubs.png,55.739463,37.56627,530,Корабль «Викинг»,Клуб,1468000227.0
530,530,Н.Арбат 21,410,1.0,1,1280741968,https://vk.com/images/places/clubs.png,55.751943,37.585157,531,Арбат,Клуб,1505362195.0
531,531,Чертановская 32К3,6,1.0,1,1280741968,https://vk.com/images/places/clubs.png,55.619,37.591656,532,Шпилька,Клуб,1465531001.0
532,532,Б.Овчинниковский пер. 24К4,0,1.0,1,1280741968,https://vk.com/images/places/clubs.png,55.743548,37.62996,533,Дом,Клуб,1353077003.0
533,533,Ср.Тишинский пер. 5К7,1,1.0,1,1280741968,https://vk.com/images/places/clubs.png,55.769803,37.576609,534,Shake,Клуб,1318886493.0
534,534,Маросейка 6К8,0,1.0,1,1280741968,https://vk.com/images/places/clubs.png,55.757126,37.635215,535,Byblos,Клуб,
535,535,Троицкий просп. 8,87,1.0,1,1280741968,https://vk.com/images/places/clubs.png,55.810946,37.49877,536,CDK МАИ,Клуб,1506869200.0
536,536,просп. Мира ,3,1.0,1,1280741968,https://vk.com/images/places/clubs.png,55.810461,37.63765,537,Солярис,Клуб,1405859629.0
537,537,Рязанский просп. 39,16,1.0,1,1280741968,https://vk.com/images/places/clubs.png,55.728535,37.75788,538,DKDance,Клуб,1442584221.0
538,538,Раушская наб. 4К5,29,1.0,1,1280741968,https://vk.com/images/places/clubs.png,55.748397,37.626852,539,Вермель,Клуб,1428922757.0
539,539,Б.Никитская 22К12,3,1.0,1,1280741968,https://vk.com/images/places/clubs.png,55.757151,37.602463,540,Гнездо глухаря,Клуб,1458589912.0
540,540,просп. Академика Сахарова 14,2,1.0,1,1280741968,https://vk.com/images/places/clubs.png,55.769135,37.643076,541,Красная шапочка,Клуб,1425161806.0
541,541,просп. Андропова ,6,1.0,1,1280741968,https://vk.com/images/places/clubs.png,55.679752,37.6638,542,Пена,Клуб,1402165012.0
542,542,Б.Бронная 18,17,1.0,1,1280741968,https://vk.com/images/places/clubs.png,55.762895,37.601196,543,Forte,Клуб,1495706780.0
543,543,пл. Конституции 2,98,2.0,1,1280741968,https://vk.com/images/places/clubs.png,59.850635,30.304936,544,Jagger,Клуб,1501359961.0
544,544,просп. Чумбарова-Лучинского 27,2,1.0,1,1280741968,https://vk.com/images/places/clubs.png,55.802659,37.535314,545,27Б,Клуб,1385516277.0
545,545,микр. Дзержинского 12К50,22,1.0,1,1280741968,https://vk.com/images/places/clubs.png,55.769687,37.67873,546,Швайн,Клуб,1414784522.0
546,546,Пресненский вал 6К1,744,1.0,1,1280741968,https://vk.com/images/places/clubs.png,55.764283,37.564392,547,Шестнадцать тонн,Клуб,1507396415.0
547,547,Старосадский пер. 5К6,16,1.0,1,1280741968,https://vk.com/images/places/clubs.png,55.756943,37.640866,548,Art Garbage,Клуб,1417911807.0
548,548,ш. Энтузиастов 6,0,1.0,1,1280741968,https://vk.com/images/places/clubs.png,55.772041,37.612955,549,Cats,Клуб,1330120999.0
549,549,пл. Славы 16К3,5,1.0,1,1280741968,https://vk.com/images/places/clubs.png,55.633404,37.766783,550,Neolit,Клуб,1497206644.0
550,550,наб. Обводного канала 118,190,2.0,1,1280741968,https://vk.com/images/places/clubs.png,59.907456,30.3056,551,Зал ожидания,Клуб,1506627611.0
551,551,Победы 11К1,2,1.0,1,1280741968,https://vk.com/images/places/clubs.png,55.750276,37.664644,552,Три обезьяны New Age,Клуб,1455741850.0
552,552,Пятницкая 4,0,1.0,1,1280741968,https://vk.com/images/places/clubs.png,55.744941,37.626897,553,Третий путь,Клуб,1310154698.0
553,553,Староваганьковский пер. 19,311,1.0,1,1280741968,https://vk.com/images/places/clubs.png,55.751361,37.606882,554,Ритм & Блюз кафе,Клуб,1506716587.0
554,554,Зубовский б-р 25,26,1.0,1,1280741968,https://vk.com/images/places/clubs.png,55.736483,37.590057,555,Распутин,Клуб,1478966414.0
555,555,Б.Златоустинский пер. 7,1180,1.0,1,1280741968,https://vk.com/images/places/clubs.png,55.758686,37.632668,556,Пропаганда,Клуб,1507462641.0
556,556,Каретный Ряд 3К1,5,1.0,1,1280741968,https://vk.com/images/places/clubs.png,55.770304,37.609308,557,Парижская жизнь,Клуб,1457344506.0
557,557,Н.Арбат 21К1,64,1.0,1,1280741968,https://vk.com/images/places/clubs.png,55.751943,37.585057,558,Метелица,Клуб,1497483360.0
558,558,Марксистская 38,74,1.0,1,1280741968,https://vk.com/images/places/clubs.png,55.733878,37.666944,559,Кристалл,Клуб,1501718659.0
559,559,Лубянский пр. 25К1,393,1.0,1,1280741968,https://vk.com/images/places/clubs.png,55.754598,37.634811,560,Китайский летчик Джао Да,Клуб,1507426970.0
560,560,просп. Мира 116а,29,1.0,1,1280741968,https://vk.com/images/places/clubs.png,55.809575,37.63809,561,Белый медведь,Клуб,1499668976.0
561,561,Тверская 17,14,1.0,1,1280741968,https://vk.com/images/places/clubs.png,55.763503,37.606514,562,Night Flight,Клуб,1503534893.0
562,562,Потаповский пер. 8К2,12,1.0,1,1280741968,https://vk.com/images/places/clubs.png,55.760444,37.641351,563,Проект ОГИ,Клуб,1335204952.0
563,563,Садовая-Самотечная 4К2,42,1.0,1,1280741968,https://vk.com/images/places/clubs.png,55.772558,37.613225,564,B.B.King,Клуб,1497119494.0
564,564,Красная Пресня 23К1б,8,1.0,1,1280741968,https://vk.com/images/places/clubs.png,55.761715,37.566701,565,Dolls,Клуб,1436446600.0
565,565,Горьковское ш. 15,184,1.0,1,1280741968,https://vk.com/images/places/clubs.png,55.782443,37.579306,566,Golden Palace,Клуб,1504529816.0
566,566,Бережковская наб. 2,5,1.0,1,1280741968,https://vk.com/images/places/clubs.png,55.741328,37.56715,567,Grand Prix,Клуб,1466065692.0
567,567,2-я Тверская-Ямская 40К3,5,1.0,1,1280741968,https://vk.com/images/places/clubs.png,55.774229,37.590812,568,Platinum Gentlemen`s Club,Клуб,1427330515.0
568,568,Беринга 38,36,2.0,1,1280741968,https://vk.com/images/places/clubs.png,59.946293,30.232415,569,Арктика,Клуб,1505827810.0
569,569,Лиговский просп. 53,30,2.0,1,1280741968,https://vk.com/images/places/clubs.png,59.929136,30.359279,570,ГЭЗ-21,Клуб,1483629079.0
570,570,Московский просп. 10,2,2.0,1,1280741968,https://vk.com/images/places/clubs.png,59.923964,30.320135,571,Пятница,Клуб,1354459352.0
571,571,Бронницкая 4,3,2.0,1,1280741968,https://vk.com/images/places/clubs.png,59.916527,30.320746,572,Taxi,Клуб,1417191425.0
572,572,Невский просп. 91,3,2.0,1,1280741968,https://vk.com/images/places/clubs.png,59.930241,30.365338,573,Jazz & Френия,Клуб,1503679756.0
573,573,Соляной пер. 14,1,2.0,1,1280741968,https://vk.com/images/places/clubs.png,59.94321,30.341955,574,Neo,Клуб,1456943220.0
574,574,М.Морская 5,0,2.0,1,1280741968,https://vk.com/images/places/clubs.png,59.936156,30.313775,575,Палитра,Клуб,
575,575,Маяковского 16,53,2.0,1,1280741968,https://vk.com/images/places/clubs.png,59.936224,30.354738,576,Ливерпуль,Клуб,1503931844.0
576,576,Чайковского 59,10,2.0,1,1280741968,https://vk.com/images/places/clubs.png,59.946184,30.360263,577,Чаплин,Клуб,1495388558.0
577,577,Дубининская 69,7,1.0,1,1280741968,https://vk.com/images/places/clubs.png,55.714964,37.634427,578,Fashion O.Z.O. Club,Клуб,1424003199.0
578,578,наб. реки Фонтанки ,9,2.0,1,1280741968,https://vk.com/images/places/clubs.png,59.922634,30.319466,579,Манхэттен,Клуб,1452874582.0
579,579,ская 89,0,72.0,1,1280741968,https://vk.com/images/places/clubs.png,28.37857,1.694097,580,People,Клуб,1330482262.0
580,580,Набережная 2а,8,2.0,1,1280741968,https://vk.com/images/places/clubs.png,59.877529,29.925164,581,Грибоедов,Клуб,1438592682.0
581,581,Зубовский б-р 27К5,0,1.0,1,1280741968,https://vk.com/images/places/clubs.png,55.736969,37.588072,582,Сафари Лодж,Клуб,1380956031.0
582,582,наб. Лейтенанта Шмидта ,3,2.0,1,1280741968,https://vk.com/images/places/clubs.png,59.933499,30.27629,583,Остров,Клуб,1408151062.0
583,583,пер. Антоненко 2,0,2.0,1,1280741968,https://vk.com/images/places/clubs.png,59.931332,30.310999,584,Порт,Клуб,
584,584,Загородный просп. 27,116,2.0,1,1280741968,https://vk.com/images/places/clubs.png,59.924172,30.336709,585,Филармония джазовой музыки,Клуб,1507321324.0
585,585,Шпалерная 33,98,2.0,1,1280741968,https://vk.com/images/places/clubs.png,59.948812,30.356652,586,JFC,Клуб,1500832788.0
586,586,Невский просп. 60,12,2.0,1,1280741968,https://vk.com/images/places/clubs.png,59.934556,30.339521,587,Golden Dolls,Клуб,1487521118.0
587,587,Кирпичный пер. 8,32,2.0,1,1280741968,https://vk.com/images/places/clubs.png,59.934867,30.317252,588,Maximus,Клуб,1479260646.0
588,588,наб. Обводного канала 181,5,2.0,1,1280741968,https://vk.com/images/places/clubs.png,59.909463,30.294232,589,Кабаре,Клуб,1419340638.0
589,589,наб. канала Грибоедова 5,34,2.0,1,1280741968,https://vk.com/images/places/clubs.png,59.939703,30.327627,590,Конюшенный Двор,Клуб,1466242058.0
590,590,наб. канала Грибоедова ,1,2.0,1,1280741968,https://vk.com/images/places/clubs.png,59.903756,30.268778,591,Монро,Клуб,1448304820.0
591,591,7-я Красноармейская 5,2,2.0,1,1280741968,https://vk.com/images/places/clubs.png,59.911845,30.316156,592,Манилов,Клуб,1391927947.0
592,592,просп. Красного Знамени 1К3,9,2.0,1,1280741968,https://vk.com/images/places/clubs.png,59.930791,30.335299,593,Rossi`s Club,Клуб,1489099422.0
593,593,Садовая 94,4,2.0,1,1280741968,https://vk.com/images/places/clubs.png,59.918088,30.290922,594,Два му,Клуб,1504331126.0
594,594,Пушечная 3,17,1.0,1,1280741968,https://vk.com/images/places/clubs.png,55.761234,37.621426,595,Karma Bar,Клуб,1501368788.0
595,595,Доброслободская 2К38,67,1.0,1,1280741968,https://vk.com/images/places/clubs.png,55.769231,37.669603,596,Fresh,Клуб,1497685640.0
596,596,Косыгина 15,19,1.0,1,1280741968,https://vk.com/images/places/clubs.png,55.706406,37.554421,597,911,Клуб,1399929895.0
597,597,Измайловский вал 2,4,1.0,1,1280741968,https://vk.com/images/places/clubs.png,55.783625,37.719127,598,Голодная кошка,Клуб,1390400387.0
598,598,Олимпийский просп. 16К1,14,1.0,1,1280741968,https://vk.com/images/places/clubs.png,55.781117,37.626396,599,Show Girls,Клуб,1387973638.0
599,599,Большевистская 55,15,110.0,1,1280741968,https://vk.com/images/places/clubs.png,58.011428,56.249206,600,Black Bar,Клуб,1503996848.0
600,600,Красноармейская 168,13,119.0,1,1280741968,https://vk.com/images/places/clubs.png,47.227586,39.712974,601,Фабрика,Клуб,1393363780.0
601,601,Лубянский пр. 7К1,46,1.0,1,1280741968,https://vk.com/images/places/clubs.png,55.7586,37.630203,602,Туннель,Клуб,1391181847.0
602,602,Литовский б-р 7,9,1.0,1,1280741968,https://vk.com/images/places/clubs.png,55.612833,37.536895,603,B-52,Клуб,1412598855.0
603,603,Б.Академическая 41К1,11,1.0,1,1280741968,https://vk.com/images/places/clubs.png,55.833774,37.533032,604,Затмение,Клуб,1400613793.0
604,604,Свердловский просп. 51,1,158.0,1,1280741968,https://vk.com/images/places/clubs.png,55.168922,61.391176,605,Ra,Клуб,1371481445.0
605,605,Трамвайная 2,3,72.0,1,1280741968,https://vk.com/images/places/clubs.png,45.012631,39.052438,606,Lily,Клуб,1387067128.0
606,606,Сходненская 2а,0,87.0,1,1280741968,https://vk.com/images/places/clubs.png,68.996249,33.09508,607,Indie Pub,Клуб,1348667377.0
607,607,Героев Хасана 93,9,110.0,1,1280741968,https://vk.com/images/places/clubs.png,58.018374,56.289109,608,Адам и Ева,Клуб,1504997371.0
608,608,Ленина 88,2,110.0,1,1280741968,https://vk.com/images/places/clubs.png,58.005677,56.209648,609,Shake,Клуб,1456045581.0
609,609,Протопоповский пер. 9,9,1.0,1,1280741968,https://vk.com/images/places/clubs.png,55.780598,37.638081,610,Чай,Клуб,1449230739.0
610,610,Крымский вал 9,31,1.0,1,1280741968,https://vk.com/images/places/clubs.png,55.731404,37.603406,611,Времена года,Клуб,1507489632.0
611,611,Клочков пер. 2,6,2.0,1,1280741968,https://vk.com/images/places/clubs.png,59.918738,30.462231,612,Нева-да!,Клуб,1417224514.0
612,612,Страстной б-р 5,9,1.0,1,1280741968,https://vk.com/images/places/clubs.png,55.767241,37.607691,613,Шоколад,Клуб,1351861317.0
613,613,просп. Ударников ,7,2.0,1,1280741968,https://vk.com/images/places/clubs.png,59.952718,30.477206,614,Jazz Blues Френия,Клуб,1407442971.0
614,614,Садовая К1,0,2.0,1,1280741968,https://vk.com/images/places/clubs.png,59.938121,30.336224,615,Revolution,Клуб,1384121592.0
615,615,Бухарестская 31,7,2.0,1,1280741968,https://vk.com/images/places/clubs.png,59.865695,30.383853,616,Kapone,Клуб,1497783415.0
616,616,Днепровская 30,7,2.0,1,1280741968,https://vk.com/images/places/clubs.png,59.854477,30.386799,617,Fireball,Клуб,1455118027.0
617,617,Российская 98,0,151.0,1,1280741968,https://vk.com/images/places/clubs.png,54.738437,55.983161,618,Аквариум,Клуб,
618,618,Докукина 10К12,2,1.0,1,1280741968,https://vk.com/images/places/clubs.png,55.839668,37.6524,619,Замок,Клуб,1425673138.0
619,619,наб. реки Карповки 5К2,0,2.0,1,1280741968,https://vk.com/images/places/clubs.png,59.968421,30.316317,620,Орландина,Клуб,
620,620,Луговая 14а,5,87.0,1,1280741968,https://vk.com/images/places/clubs.png,68.98092,33.104499,621,Irish Pub I.R.A.,Клуб,1408392571.0
621,621,Павильон Урицкого 15,0,99.0,1,1280741968,https://vk.com/images/places/clubs.png,55.0333,82.913103,622,Лодка,Клуб,1337867455.0
622,622,Фокина 4,2,1.0,1,1280741968,https://vk.com/images/places/clubs.png,55.774492,37.4675,623,Патриот,Клуб,1488052641.0
623,623,Тверская 14,0,1.0,1,1280741968,https://vk.com/images/places/clubs.png,55.764298,37.606766,624,YE,Клуб,
624,624,Пушкинская 9,43,57.0,1,1280741968,https://vk.com/images/places/clubs.png,52.272794,104.281406,625,Развлекательный центр «Акула»,Клуб,1467714444.0
625,625,Ленина 46,30,57.0,1,1280741968,https://vk.com/images/places/clubs.png,52.277759,104.28287,626,Эстрада,Клуб,1507391110.0
626,626,Литвинова 20,1,57.0,1,1280741968,https://vk.com/images/places/clubs.png,52.281065,104.294171,627,Живой звук,Клуб,1391073449.0
627,627,Свердлова 28,1,57.0,1,1280741968,https://vk.com/images/places/clubs.png,52.285902,104.286374,628,Ливерпуль,Клуб,1376663327.0
628,628,Комсомольская 4,2,57.0,1,1280741968,https://vk.com/images/places/clubs.png,52.249461,104.259801,629,Мегаполис,Клуб,1477773486.0
629,629,Байкальская ,6,57.0,1,1280741968,https://vk.com/images/places/clubs.png,52.25584,104.334056,630,Super Maradona,Клуб,1438485048.0
630,630,Карла Маркса 15,6,57.0,1,1280741968,https://vk.com/images/places/clubs.png,52.282189,104.284954,631,Стратосфера,Клуб,1476953166.0
631,631,Морской вокзал 3,2,10.0,1,1280741968,https://vk.com/images/places/clubs.png,48.802318,44.601291,632,Кристалл,Клуб,1483626359.0
632,632,просп. Сельмаш 1,1,119.0,1,1280741968,https://vk.com/images/places/clubs.png,47.244387,39.756991,633,Big Sound,Клуб,1471502014.0
633,633,Книповича 43,57,87.0,1,1280741968,https://vk.com/images/places/clubs.png,68.959135,33.093136,634,Бригантина,Клуб,1504905054.0
634,634,Максима Горького ,0,99.0,1,1280741968,https://vk.com/images/places/clubs.png,55.027098,82.920969,635,ArtDance Ателье,Клуб,
635,635,Добровольского 30К2,19,119.0,1,1280741968,https://vk.com/images/places/clubs.png,47.294073,39.703847,636,Bavaria,Клуб,1496079557.0
636,636,Семеновская 1,0,60.0,1,1280741968,https://vk.com/images/places/clubs.png,55.786812,49.122838,637,Джентельмен-клуб,Клуб,1281038789.0
637,637,Братьев Касимовых 38,4,60.0,1,1280741968,https://vk.com/images/places/clubs.png,55.756341,49.200306,638,Провокация,Клуб,1499164407.0
638,638,Землячки 40,5,10.0,1,1280741968,https://vk.com/images/places/clubs.png,48.753141,44.484348,639,Хижина,Клуб,1417893147.0
639,639,Всеволода Сибирцева 10,3,1.0,1,1280741968,https://vk.com/images/places/clubs.png,55.839001,37.3788,640,Drive,Клуб,1451616501.0
640,640,Новомарьинская 19,77,151.0,1,1280741968,https://vk.com/images/places/clubs.png,54.738001,55.971164,641,Огни Уфы,Клуб,1500470190.0
641,641,Зеленский съезд 8,81,95.0,1,1280741968,https://vk.com/images/places/clubs.png,56.329098,43.996617,642,Лекс,Клуб,1506849559.0
642,642,Нижневолжская наб. 21,1,95.0,1,1280741968,https://vk.com/images/places/clubs.png,56.324493,44.001928,643,Бизон,Клуб,1440195644.0
643,643,Сахалинская 2К1,0,95.0,1,1280741968,https://vk.com/images/places/clubs.png,56.301918,44.037922,644,Wizard,Клуб,1379510048.0
644,644,Родионова 4,3,95.0,1,1280741968,https://vk.com/images/places/clubs.png,56.321596,44.044353,645,Матрица,Клуб,1352974520.0
645,645,Коминтерна 105,6,95.0,1,1280741968,https://vk.com/images/places/clubs.png,56.347799,43.870934,646,Голливуд,Клуб,1493837723.0
646,646,Лейтенанта Шмидта 26а,0,10.0,1,1280741968,https://vk.com/images/places/clubs.png,48.763297,44.478851,647,Ника,Клуб,1350496492.0
647,647,просп. Острякова 5,6,119.0,1,1280741968,https://vk.com/images/places/clubs.png,47.23376,39.763666,648,Ночной город,Клуб,1504118288.0
648,648,просп. Наставников ,6,2.0,1,1280741968,https://vk.com/images/places/clubs.png,59.947766,30.48945,649,Домино,Клуб,1397315536.0
649,649,Комарова 5,2,60.0,1,1280741968,https://vk.com/images/places/clubs.png,55.785139,49.115253,650,Art-Salon,Клуб,1346923126.0
650,650,Железнодорожная 61,0,99.0,1,1280741968,https://vk.com/images/places/clubs.png,55.089743,82.952446,651,Локомотив,Клуб,1453645733.0
651,651,1-я Морская 1,7,60.0,1,1280741968,https://vk.com/images/places/clubs.png,55.74485,49.195868,652,Эрмитаж,Клуб,1421946140.0
652,652,Енисейская 2,0,112.0,1,1280741968,https://vk.com/images/places/clubs.png,61.758507,34.372947,653,Филин,Клуб,1345352945.0
653,653,Б.Покровская 32,0,95.0,1,1280741968,https://vk.com/images/places/clubs.png,56.317772,43.996617,654,Hustler,Клуб,
654,654,Петровка 21К1,0,1.0,1,1280741968,https://vk.com/images/places/clubs.png,55.76561,37.615569,655,Tabu,Клуб,
655,655,Никифорова ,2,2.0,1,1280741968,https://vk.com/images/places/clubs.png,59.948017,30.314087,656,Pacha Bridge Lounge,Клуб,1354224899.0
656,656,Громова 24,6,1.0,1,1280741968,https://vk.com/images/places/clubs.png,55.74298,37.492401,657,Cafenet,Клуб,1342121746.0
657,657,Ферганская 16,1,49.0,1,1280741968,https://vk.com/images/places/clubs.png,56.77234,60.606691,658,Ямал,Клуб,1484967247.0
658,658,Хиросимы 15а,2,10.0,1,1280741968,https://vk.com/images/places/clubs.png,48.725863,44.521287,659,Сова,Клуб,1420131022.0
659,659,Рубцовская наб. 6,4,1.0,1,1280741968,https://vk.com/images/places/clubs.png,55.77993,37.70028,660,Нокаут.Gold,Клуб,1420398424.0
660,660,Баумана ,1,60.0,1,1280741968,https://vk.com/images/places/clubs.png,55.792936,49.110378,661,Бухарест,Клуб,1342785461.0
661,661,просп. Гагарина 27,0,95.0,1,1280741968,https://vk.com/images/places/clubs.png,56.293467,43.979432,662,Мотор,Клуб,1329033599.0
662,662,Хабаровская 19,0,99.0,1,1280741968,https://vk.com/images/places/clubs.png,55.05729,82.904943,663,Пинта,Клуб,
663,663,Гончарная 25,4,2.0,1,1280741968,https://vk.com/images/places/clubs.png,59.927847,30.3678,664,Усы,Клуб,1475842325.0
664,664,Советская 78,1,169.0,1,1280741968,https://vk.com/images/places/clubs.png,57.641722,39.87494,665,Для своих,Клуб,1393258490.0
665,665,просп. Ленина 32а,3,95.0,1,1280741968,https://vk.com/images/places/clubs.png,56.287717,43.930977,666,Утопия,Клуб,1467276502.0
666,666,Шишкина 14а,0,95.0,1,1280741968,https://vk.com/images/places/clubs.png,56.235546,43.852231,667,Голливуд,Клуб,1343590052.0
667,667,Ленинградский просп. 49а,30,169.0,1,1280741968,https://vk.com/images/places/clubs.png,57.679353,39.791262,668,Космос,Клуб,1506658480.0
668,668,Токмаков пер. 11,1,1.0,1,1280741968,https://vk.com/images/places/clubs.png,55.767241,37.669738,669,Горбатая гора,Клуб,1348924614.0
669,669,М.Палашевский пер. 6,14,1.0,1,1280741968,https://vk.com/images/places/clubs.png,55.765194,37.60266,670,Bogema,Клуб,1505898647.0
670,670,Ниж.Сусальный пер. 5К5а,43,1.0,1,1280741968,https://vk.com/images/places/clubs.png,55.759765,37.664267,671,Discoteque,Клуб,1351367804.0
671,671,Мантулинская 5К1,14,1.0,1,1280741968,https://vk.com/images/places/clubs.png,55.755799,37.552058,672,Плазма-холл,Клуб,1408567016.0
672,672,Владикавказская ,16,87.0,1,1280741968,https://vk.com/images/places/clubs.png,68.943939,33.10626,673,Долина уюта,Клуб,1488181344.0
673,673,Ленинградский просп. 37К6,0,1.0,1,1280741968,https://vk.com/images/places/clubs.png,55.793409,37.543048,674,Secret Service,Клуб,1363959000.0
674,674,наб. реки Фонтанки ,102,2.0,1,1280741968,https://vk.com/images/places/clubs.png,59.922682,30.319431,675,Аничков мост,Клуб,1507393434.0
675,675,Большевистская 131,8,99.0,1,1280741968,https://vk.com/images/places/clubs.png,54.999248,82.959794,676,Capriccio,Клуб,1487822367.0
676,676,Часовитина 35,6,99.0,1,1280741968,https://vk.com/images/places/clubs.png,55.031794,82.926466,677,Блиндаж,Клуб,1457105340.0
677,677,Ленина 10,1,99.0,1,1280741968,https://vk.com/images/places/clubs.png,55.029877,82.919419,678,Capriccio,Клуб,1440221062.0
678,678,Нарымская 23,0,99.0,1,1280741968,https://vk.com/images/places/clubs.png,55.043644,82.904871,679,Shamrock,Клуб,1354029757.0
679,679,Красный просп. 37,15,99.0,1,1280741968,https://vk.com/images/places/clubs.png,55.034198,82.918773,680,Old Irish Pub,Клуб,1507100849.0
680,680,Ленина 20,11,99.0,1,1280741968,https://vk.com/images/places/clubs.png,55.029838,82.919388,681,Pub 501,Клуб,1502469643.0
681,681,Пискунова 11,118,95.0,1,1280741968,https://vk.com/images/places/clubs.png,56.323692,44.00472,682,Рок-бар,Клуб,1506698159.0
682,682,Почтовый пер. 60,11,112.0,1,1280741968,https://vk.com/images/places/clubs.png,61.801287,34.314997,683,Авиаретро,Клуб,1500152423.0
683,683,просп. Науки 10К1,14,2.0,1,1280741968,https://vk.com/images/places/clubs.png,60.015246,30.390608,684,Lava,Клуб,1465559722.0
684,684,Орджоникидзе 50,1,158.0,1,1280741968,https://vk.com/images/places/clubs.png,55.152084,61.406353,685,Светлое прошлое,Клуб,1440490759.0
685,685,Разъезжая 12,0,2.0,1,1280741968,https://vk.com/images/places/clubs.png,59.924889,30.345935,686,Маша на ракете,Клуб,
686,686,Петра Великого 15,3,1.0,1,1280741968,https://vk.com/images/places/clubs.png,55.747003,37.90807,687,Daja,Клуб,1355502260.0
687,687,Батарейная 28,2,42.0,1,1280741968,https://vk.com/images/places/clubs.png,51.654445,39.123463,688,Бункер,Клуб,1402828227.0
688,688,Литейный просп. 64К78,1,2.0,1,1280741968,https://vk.com/images/places/clubs.png,59.933077,30.348477,689,Филин Гуд,Клуб,1345854093.0
689,689,просп. Ленина 9,2,158.0,1,1280741968,https://vk.com/images/places/clubs.png,55.15945,61.451602,690,Колизей,Клуб,1498757104.0
690,690,Ст.Басманная 20К13,2,1.0,1,1280741968,https://vk.com/images/places/clubs.png,55.7664,37.667037,691,Play Cafe,Клуб,1353488586.0
691,691,Петропавловская 185,0,110.0,1,1280741968,https://vk.com/images/places/clubs.png,58.00849,56.241127,692,Хрустальный лев,Клуб,
692,692,Фрунзе ,5,99.0,1,1280741968,https://vk.com/images/places/clubs.png,55.037913,82.93562,693,Однажды в Америке,Клуб,1424720448.0
693,693,1-ая Морская 15,2,99.0,1,1280741968,https://vk.com/images/places/clubs.png,55.026711,82.967232,694,Позитрон,Клуб,1346145968.0
694,694,Якоби 35,73,57.0,1,1280741968,https://vk.com/images/places/clubs.png,52.222597,104.326578,695,Дикая лошадь,Клуб,1506923309.0
695,695,Краснознаменский пер. 1б,0,119.0,1,1280741968,https://vk.com/images/places/clubs.png,47.193931,39.611563,696,Zeitnot,Клуб,1353931362.0
696,696,Дмитровское ш. 27К1,1,1.0,1,1280741968,https://vk.com/images/places/clubs.png,55.826518,37.570797,697,Fases,Клуб,1349248169.0
697,697,Симферопольский б-р 4,3,1.0,1,1280741968,https://vk.com/images/places/clubs.png,55.659419,37.607691,698,Революция,Клуб,1352407243.0
698,698,Ленина 1,1,99.0,1,1280741968,https://vk.com/images/places/clubs.png,55.02986,82.919343,699,Fresh,Клуб,1348778701.0
699,699,Нижневолжская наб. 1в,57,95.0,1,1280741968,https://vk.com/images/places/clubs.png,56.33149,44.007101,700,Indi Сlub,Клуб,1494713707.0
700,700,Торжковская 11,2,2.0,1,1280741968,https://vk.com/images/places/clubs.png,59.990008,30.31541,701,Галерея хорошей музыки,Клуб,1438506360.0
701,701,пересечение Университетской наб. и 1-й линии В.О. 142,4,99.0,1,1280741968,https://vk.com/images/places/clubs.png,54.988195,82.914734,702,City Club,Клуб,1346526868.0
702,702,Советская 12,3,95.0,1,1280741968,https://vk.com/images/places/clubs.png,56.262152,43.74296,703,Neo,Клуб,1496852351.0
703,703,Спортивная 4К4,6,1.0,1,1280741968,https://vk.com/images/places/clubs.png,55.739422,37.612739,704,Миллиардер,Клуб,1352207542.0
704,704,Ленина 12,3,99.0,1,1280741968,https://vk.com/images/places/clubs.png,55.029838,82.919388,705,New York Times,Клуб,1506720788.0
705,705,Сормовская 7,2,72.0,1,1280741968,https://vk.com/images/places/clubs.png,45.024259,39.064615,706,Baoli,Клуб,1320845556.0
706,706,Кировоградская 15,13,1.0,1,1280741968,https://vk.com/images/places/clubs.png,55.609446,37.604708,707,Place,Клуб,1415885651.0
707,707,Народный просп. ,0,2.0,1,1280741968,https://vk.com/images/places/clubs.png,59.942394,30.276127,708,Tema,Клуб,1346581162.0
708,708,Лесной просп. 48а,225,2.0,1,1280741968,https://vk.com/images/places/clubs.png,59.981523,30.342485,709,Шоу-холл «Атмосфера»,Клуб,1505912202.0
709,709,Бородинская 75а,0,42.0,1,1280741968,https://vk.com/images/places/clubs.png,51.663825,39.18189,710,Stalker,Клуб,
710,710,Первомайская 43,0,151.0,1,1280741968,https://vk.com/images/places/clubs.png,54.815015,56.087006,711,Подземка,Клуб,1355225874.0
711,711,Челюскинцев ,2,49.0,1,1280741968,https://vk.com/images/places/clubs.png,56.855374,60.60242,712,Дом 102,Клуб,1418051623.0
712,712,Дружинниковская 15,23,1.0,1,1280741968,https://vk.com/images/places/clubs.png,55.759755,37.574696,713,Бархат,Клуб,1454265862.0
713,713,просп. Пятилеток ,4,2.0,1,1280741968,https://vk.com/images/places/clubs.png,59.92263,30.458799,714,Cocoon,Клуб,1347215130.0
714,714,Таганская пл. 20,1,1.0,1,1280741968,https://vk.com/images/places/clubs.png,55.76643,37.664087,715,Килтон,Клуб,1389470339.0
715,715,Московская 1а,87,60.0,1,1280741968,https://vk.com/images/places/clubs.png,55.793908,49.103434,716,Joker,Клуб,1489950579.0
716,716,Челюскинцев 102,5,49.0,1,1280741968,https://vk.com/images/places/clubs.png,56.855374,60.60232,717,Старая крепость,Клуб,1462818618.0
717,717,Красных Командиров 14,1,49.0,1,1280741968,https://vk.com/images/places/clubs.png,56.893869,60.6196,718,Сфинкс,Клуб,1352053662.0
718,718,Суханова 10,12,49.0,1,1280741968,https://vk.com/images/places/clubs.png,56.838008,60.597274,719,Солдат удачи,Клуб,1282663352.0
719,719,Фрунзе 14,1,99.0,1,1280741968,https://vk.com/images/places/clubs.png,55.036979,82.927652,720,Джаз-клуб,Клуб,1410353635.0
720,720,просп. Дзержинского ,2,99.0,1,1280741968,https://vk.com/images/places/clubs.png,55.058085,82.979848,721,Точка.ру,Клуб,1399313882.0
721,721,Новочеркасский б-р 19а,9,1.0,1,1280741968,https://vk.com/images/places/clubs.png,55.64796,37.727769,722,City Club,Клуб,1471501919.0
722,722,просп. Ленина 48,0,49.0,1,1280741968,https://vk.com/images/places/clubs.png,56.839676,60.619061,723,Студио,Клуб,1340040332.0
723,723,Маковского 20,3,2.0,1,1280741968,https://vk.com/images/places/clubs.png,59.949483,30.360335,724,Mojo,Клуб,1373539815.0
724,724,Дуси Ковальчук 260,5,99.0,1,1280741968,https://vk.com/images/places/clubs.png,55.057786,82.909704,725,Primus,Клуб,1487869616.0
725,725,Гоголя 15,3,49.0,1,1280741968,https://vk.com/images/places/clubs.png,56.8336,60.61041,726,Трансотель,Клуб,1453169660.0
726,726,Уборевича 1,3,57.0,1,1280741968,https://vk.com/images/places/clubs.png,52.27788,104.281523,727,Дом Актера,Клуб,1487775463.0
727,727,наб. Гребного канала 108,80,95.0,1,1280741968,https://vk.com/images/places/clubs.png,56.329467,44.043797,728,Робинзон,Клуб,1505464998.0
728,728,просп. Гагарина 27а,1,95.0,1,1280741968,https://vk.com/images/places/clubs.png,56.293802,43.980196,729,Бульвар,Клуб,1391241581.0
729,729,Южная дорога 14,224,2.0,1,1280741968,https://vk.com/images/places/clubs.png,59.96857,30.232662,730,Royal Beach Club,Клуб,1506186315.0
730,730,Победы 37,3,169.0,1,1280741968,https://vk.com/images/places/clubs.png,57.631653,39.870655,731,Montana,Клуб,1436094584.0
731,731,Комсомольская ,1,57.0,1,1280741968,https://vk.com/images/places/clubs.png,52.250432,104.254223,732,Zima project,Клуб,1342284718.0
732,732,Б.Златоустинский пер. 2К8,25,1.0,1,1280741968,https://vk.com/images/places/clubs.png,55.759968,37.631083,733,Point Rouge,Клуб,1504302744.0
733,733,Водопьянова 17,18,78.0,1,1280741968,https://vk.com/images/places/clubs.png,52.590913,39.545132,734,Ego,Клуб,1478887516.0
734,734,просп. Испытателей ,7,2.0,1,1280741968,https://vk.com/images/places/clubs.png,60.004586,30.285419,735,Сан-Франциско,Клуб,1448591393.0
735,735,Кирова 12,15,112.0,1,1280741968,https://vk.com/images/places/clubs.png,61.790993,34.37239,736,FM Club,Клуб,1471735296.0
736,736,Думская 9,114,2.0,1,1280741968,https://vk.com/images/places/clubs.png,59.932707,30.327331,737,Фидель,Клуб,1506111857.0
737,737,трасса Ростов-Ольгинская ,0,119.0,1,1280741968,https://vk.com/images/places/clubs.png,47.227163,39.744918,738,Воздух,Клуб,
738,738,просп. Ленина 26,0,112.0,1,1280741968,https://vk.com/images/places/clubs.png,61.788088,34.356185,739,Детская музыкальная школа,Клуб,
739,739,просп. Ленина 27,48,112.0,1,1280741968,https://vk.com/images/places/clubs.png,61.787544,34.356975,740,Карелия,Клуб,1507475867.0
740,740,просп. Карла Маркса 19,0,112.0,1,1280741968,https://vk.com/images/places/clubs.png,61.787382,34.379496,741,Velvet,Клуб,
741,741,Фонтанная 31,0,151.0,1,1280741968,https://vk.com/images/places/clubs.png,54.713507,55.942234,742,Chester,Клуб,
742,742,Маршала Катукова 8,9,1.0,1,1280741968,https://vk.com/images/places/clubs.png,55.809575,37.402327,743,Disco,Клуб,1408138001.0
743,743,Первомайский просп. 2,3,112.0,1,1280741968,https://vk.com/images/places/clubs.png,61.793255,34.348491,744,Mambo,Клуб,1442361462.0
744,744,Петровка 17К1,0,1.0,1,1280741968,https://vk.com/images/places/clubs.png,55.764491,37.616485,745,Армида,Клуб,1324646420.0
